[
	{
		"cityCode" : 5200050,
		"name" : "Abadia de Goiás",
		"latitude" : -16.7573,
		"longitude" : -49.4412,
		"isCapitalCity" : false,
		"stateInitials" : "PA"
	},
	{
		"cityCode" : 3100104,
		"name" : "Abadia dos Dourados",
		"latitude" : -18.4831,
		"longitude" : -47.3916,
		"isCapitalCity" : false,
		"stateInitials" : "MG"
	},
	{
		"cityCode" : 5200100,
		"name" : "Abadiânia",
		"latitude" : -16.197,
		"longitude" : -48.7057,
		"isCapitalCity" : false,
		"stateInitials" : "PA"
	},
	{
		"cityCode" : 3100203,
		"name" : "Abaeté",
		"latitude" : -19.1551,
		"longitude" : -45.4444,
		"isCapitalCity" : false,
		"stateInitials" : "MG"
	},
	{
		"cityCode" : 1500107,
		"name" : "Abaetetuba",
		"latitude" : -1.72183,
		"longitude" : -48.8788,
		"isCapitalCity" : false,
		"stateInitials" : "PA"
	},
	{
		"cityCode" : 2300101,
		"name" : "Abaiara",
		"latitude" : -7.34588,
		"longitude" : -39.0416,
		"isCapitalCity" : false,
		"stateInitials" : "CE"
	},
	{
		"cityCode" : 2900108,
		"name" : "Abaíra",
		"latitude" : -13.2488,
		"longitude" : -41.6619,
		"isCapitalCity" : false,
		"stateInitials" : "BA"
	},
	{
		"cityCode" : 2900207,
		"name" : "Abaré",
		"latitude" : -8.72073,
		"longitude" : -39.1162,
		"isCapitalCity" : false,
		"stateInitials" : "BA"
	},
	{
		"cityCode" : 4100103,
		"name" : "Abatiá",
		"latitude" : -23.3049,
		"longitude" : -50.3133,
		"isCapitalCity" : false,
		"stateInitials" : "PR"
	},
	{
		"cityCode" : 4200051,
		"name" : "Abdon Batista",
		"latitude" : -27.6126,
		"longitude" : -51.0233,
		"isCapitalCity" : false,
		"stateInitials" : "SC"
	},
	{
		"cityCode" : 1500131,
		"name" : "Abel Figueiredo",
		"latitude" : -4.95333,
		"longitude" : -48.3933,
		"isCapitalCity" : false,
		"stateInitials" : "PA"
	},
	{
		"cityCode" : 4200101,
		"name" : "Abelardo Luz",
		"latitude" : -26.5716,
		"longitude" : -52.3229,
		"isCapitalCity" : false,
		"stateInitials" : "SC"
	},
	{
		"cityCode" : 3100302,
		"name" : "Abre Campo",
		"latitude" : -20.2996,
		"longitude" : -42.4743,
		"isCapitalCity" : false,
		"stateInitials" : "MG"
	},
	{
		"cityCode" : 2600054,
		"name" : "Abreu e Lima",
		"latitude" : -7.90072,
		"longitude" : -34.8984,
		"isCapitalCity" : false,
		"stateInitials" : "PE"
	},
	{
		"cityCode" : 1700251,
		"name" : "Abreulândia",
		"latitude" : -9.62101,
		"longitude" : -49.1518,
		"isCapitalCity" : false,
		"stateInitials" : "TO"
	},
	{
		"cityCode" : 3100401,
		"name" : "Acaiaca",
		"latitude" : -20.359,
		"longitude" : -43.1439,
		"isCapitalCity" : false,
		"stateInitials" : "MG"
	},
	{
		"cityCode" : 2100055,
		"name" : "Açailândia",
		"latitude" : -4.94714,
		"longitude" : -47.5004,
		"isCapitalCity" : false,
		"stateInitials" : "MA"
	},
	{
		"cityCode" : 2900306,
		"name" : "Acajutiba",
		"latitude" : -11.6575,
		"longitude" : -38.0197,
		"isCapitalCity" : false,
		"stateInitials" : "BA"
	},
	{
		"cityCode" : 1500206,
		"name" : "Acará",
		"latitude" : -1.95383,
		"longitude" : -48.1985,
		"isCapitalCity" : false,
		"stateInitials" : "PA"
	},
	{
		"cityCode" : 2300150,
		"name" : "Acarape",
		"latitude" : -4.22083,
		"longitude" : -38.7055,
		"isCapitalCity" : false,
		"stateInitials" : "CE"
	},
	{
		"cityCode" : 2300200,
		"name" : "Acaraú",
		"latitude" : -2.88769,
		"longitude" : -40.1183,
		"isCapitalCity" : false,
		"stateInitials" : "CE"
	},
	{
		"cityCode" : 2400109,
		"name" : "Acari",
		"latitude" : -6.4282,
		"longitude" : -36.6347,
		"isCapitalCity" : false,
		"stateInitials" : "RN"
	},
	{
		"cityCode" : 2200053,
		"name" : "Acauã",
		"latitude" : -8.21954,
		"longitude" : -41.0831,
		"isCapitalCity" : false,
		"stateInitials" : "PI"
	},
	{
		"cityCode" : 4300034,
		"name" : "Aceguá",
		"latitude" : -31.8665,
		"longitude" : -54.1615,
		"isCapitalCity" : false,
		"stateInitials" : "RS"
	},
	{
		"cityCode" : 2300309,
		"name" : "Acopiara",
		"latitude" : -6.08911,
		"longitude" : -39.448,
		"isCapitalCity" : false,
		"stateInitials" : "CE"
	},
	{
		"cityCode" : 5100102,
		"name" : "Acorizal",
		"latitude" : -15.194,
		"longitude" : -56.3632,
		"isCapitalCity" : false,
		"stateInitials" : "MT"
	},
	{
		"cityCode" : 1200013,
		"name" : "Acrelândia",
		"latitude" : -9.82581,
		"longitude" : -66.8972,
		"isCapitalCity" : false,
		"stateInitials" : "AC"
	},
	{
		"cityCode" : 5200134,
		"name" : "Acreúna",
		"latitude" : -17.396,
		"longitude" : -50.3749,
		"isCapitalCity" : false,
		"stateInitials" : "PA"
	},
	{
		"cityCode" : 2400208,
		"name" : "Açu",
		"latitude" : -5.58362,
		"longitude" : -36.914,
		"isCapitalCity" : false,
		"stateInitials" : "RN"
	},
	{
		"cityCode" : 3100500,
		"name" : "Açucena",
		"latitude" : -19.0671,
		"longitude" : -42.5419,
		"isCapitalCity" : false,
		"stateInitials" : "MG"
	},
	{
		"cityCode" : 3500105,
		"name" : "Adamantina",
		"latitude" : -21.682,
		"longitude" : -51.0737,
		"isCapitalCity" : false,
		"stateInitials" : "SP"
	},
	{
		"cityCode" : 5200159,
		"name" : "Adelândia",
		"latitude" : -16.4127,
		"longitude" : -50.1657,
		"isCapitalCity" : false,
		"stateInitials" : "PA"
	},
	{
		"cityCode" : 3500204,
		"name" : "Adolfo",
		"latitude" : -21.2325,
		"longitude" : -49.6451,
		"isCapitalCity" : false,
		"stateInitials" : "SP"
	},
	{
		"cityCode" : 4100202,
		"name" : "Adrianópolis",
		"latitude" : -24.6606,
		"longitude" : -48.9922,
		"isCapitalCity" : false,
		"stateInitials" : "PR"
	},
	{
		"cityCode" : 2900355,
		"name" : "Adustina",
		"latitude" : -10.5437,
		"longitude" : -38.1113,
		"isCapitalCity" : false,
		"stateInitials" : "BA"
	},
	{
		"cityCode" : 2600104,
		"name" : "Afogados da Ingazeira",
		"latitude" : -7.74312,
		"longitude" : -37.631,
		"isCapitalCity" : false,
		"stateInitials" : "PE"
	},
	{
		"cityCode" : 2400307,
		"name" : "Afonso Bezerra",
		"latitude" : -5.49229,
		"longitude" : -36.5075,
		"isCapitalCity" : false,
		"stateInitials" : "RN"
	},
	{
		"cityCode" : 3200102,
		"name" : "Afonso Cláudio",
		"latitude" : -20.0778,
		"longitude" : -41.1261,
		"isCapitalCity" : false,
		"stateInitials" : "ES"
	},
	{
		"cityCode" : 2100105,
		"name" : "Afonso Cunha",
		"latitude" : -4.13631,
		"longitude" : -43.3275,
		"isCapitalCity" : false,
		"stateInitials" : "MA"
	},
	{
		"cityCode" : 2600203,
		"name" : "Afrânio",
		"latitude" : -8.51136,
		"longitude" : -41.0095,
		"isCapitalCity" : false,
		"stateInitials" : "PE"
	},
	{
		"cityCode" : 1500305,
		"name" : "Afuá",
		"latitude" : -0.154874,
		"longitude" : -50.3861,
		"isCapitalCity" : false,
		"stateInitials" : "PA"
	},
	{
		"cityCode" : 2600302,
		"name" : "Agrestina",
		"latitude" : -8.45966,
		"longitude" : -35.9447,
		"isCapitalCity" : false,
		"stateInitials" : "PE"
	},
	{
		"cityCode" : 2200103,
		"name" : "Agricolândia",
		"latitude" : -5.79676,
		"longitude" : -42.6664,
		"isCapitalCity" : false,
		"stateInitials" : "PI"
	},
	{
		"cityCode" : 4200200,
		"name" : "Agrolândia",
		"latitude" : -27.4087,
		"longitude" : -49.822,
		"isCapitalCity" : false,
		"stateInitials" : "SC"
	},
	{
		"cityCode" : 4200309,
		"name" : "Agronômica",
		"latitude" : -27.2662,
		"longitude" : -49.708,
		"isCapitalCity" : false,
		"stateInitials" : "SC"
	},
	{
		"cityCode" : 1500347,
		"name" : "Água Azul do Norte",
		"latitude" : -6.79053,
		"longitude" : -50.4791,
		"isCapitalCity" : false,
		"stateInitials" : "PA"
	},
	{
		"cityCode" : 3100609,
		"name" : "Água Boa",
		"latitude" : -17.9914,
		"longitude" : -42.3806,
		"isCapitalCity" : false,
		"stateInitials" : "MG"
	},
	{
		"cityCode" : 5100201,
		"name" : "Água Boa",
		"latitude" : -14.051,
		"longitude" : -52.1601,
		"isCapitalCity" : false,
		"stateInitials" : "MT"
	},
	{
		"cityCode" : 2200202,
		"name" : "Água Branca",
		"latitude" : -5.88856,
		"longitude" : -42.637,
		"isCapitalCity" : false,
		"stateInitials" : "PI"
	},
	{
		"cityCode" : 2500106,
		"name" : "Água Branca",
		"latitude" : -7.51144,
		"longitude" : -37.6357,
		"isCapitalCity" : false,
		"stateInitials" : "PB"
	},
	{
		"cityCode" : 2700102,
		"name" : "Água Branca",
		"latitude" : -9.262,
		"longitude" : -37.938,
		"isCapitalCity" : false,
		"stateInitials" : "AL"
	},
	{
		"cityCode" : 5000203,
		"name" : "Água Clara",
		"latitude" : -20.4452,
		"longitude" : -52.879,
		"isCapitalCity" : false,
		"stateInitials" : "MS"
	},
	{
		"cityCode" : 3100708,
		"name" : "Água Comprida",
		"latitude" : -20.0576,
		"longitude" : -48.1069,
		"isCapitalCity" : false,
		"stateInitials" : "MG"
	},
	{
		"cityCode" : 4200408,
		"name" : "Água Doce",
		"latitude" : -26.9985,
		"longitude" : -51.5528,
		"isCapitalCity" : false,
		"stateInitials" : "SC"
	},
	{
		"cityCode" : 2100154,
		"name" : "Água Doce do Maranhão",
		"latitude" : -2.84048,
		"longitude" : -42.1189,
		"isCapitalCity" : false,
		"stateInitials" : "MA"
	},
	{
		"cityCode" : 3200169,
		"name" : "Água Doce do Norte",
		"latitude" : -18.5482,
		"longitude" : -40.9854,
		"isCapitalCity" : false,
		"stateInitials" : "ES"
	},
	{
		"cityCode" : 2900405,
		"name" : "Água Fria",
		"latitude" : -11.8618,
		"longitude" : -38.7639,
		"isCapitalCity" : false,
		"stateInitials" : "BA"
	},
	{
		"cityCode" : 5200175,
		"name" : "Água Fria de Goiás",
		"latitude" : -14.9778,
		"longitude" : -47.7823,
		"isCapitalCity" : false,
		"stateInitials" : "PA"
	},
	{
		"cityCode" : 5200209,
		"name" : "Água Limpa",
		"latitude" : -18.0771,
		"longitude" : -48.7603,
		"isCapitalCity" : false,
		"stateInitials" : "PA"
	},
	{
		"cityCode" : 2400406,
		"name" : "Água Nova",
		"latitude" : -6.20351,
		"longitude" : -38.2941,
		"isCapitalCity" : false,
		"stateInitials" : "RN"
	},
	{
		"cityCode" : 2600401,
		"name" : "Água Preta",
		"latitude" : -8.70609,
		"longitude" : -35.5263,
		"isCapitalCity" : false,
		"stateInitials" : "PE"
	},
	{
		"cityCode" : 4300059,
		"name" : "Água Santa",
		"latitude" : -28.1672,
		"longitude" : -52.031,
		"isCapitalCity" : false,
		"stateInitials" : "RS"
	},
	{
		"cityCode" : 3500303,
		"name" : "Aguaí",
		"latitude" : -22.0572,
		"longitude" : -46.9735,
		"isCapitalCity" : false,
		"stateInitials" : "SP"
	},
	{
		"cityCode" : 3100807,
		"name" : "Aguanil",
		"latitude" : -20.9439,
		"longitude" : -45.3915,
		"isCapitalCity" : false,
		"stateInitials" : "MG"
	},
	{
		"cityCode" : 2600500,
		"name" : "Águas Belas",
		"latitude" : -9.11125,
		"longitude" : -37.1226,
		"isCapitalCity" : false,
		"stateInitials" : "PE"
	},
	{
		"cityCode" : 3500402,
		"name" : "Águas da Prata",
		"latitude" : -21.9319,
		"longitude" : -46.7176,
		"isCapitalCity" : false,
		"stateInitials" : "SP"
	},
	{
		"cityCode" : 4200507,
		"name" : "Águas de Chapecó",
		"latitude" : -27.0754,
		"longitude" : -52.9808,
		"isCapitalCity" : false,
		"stateInitials" : "SC"
	},
	{
		"cityCode" : 3500501,
		"name" : "Águas de Lindóia",
		"latitude" : -22.4733,
		"longitude" : -46.6314,
		"isCapitalCity" : false,
		"stateInitials" : "SP"
	},
	{
		"cityCode" : 3500550,
		"name" : "Águas de Santa Bárbara",
		"latitude" : -22.8812,
		"longitude" : -49.2421,
		"isCapitalCity" : false,
		"stateInitials" : "SP"
	},
	{
		"cityCode" : 3500600,
		"name" : "Águas de São Pedro",
		"latitude" : -22.5977,
		"longitude" : -47.8734,
		"isCapitalCity" : false,
		"stateInitials" : "SP"
	},
	{
		"cityCode" : 3100906,
		"name" : "Águas Formosas",
		"latitude" : -17.0802,
		"longitude" : -40.9384,
		"isCapitalCity" : false,
		"stateInitials" : "MG"
	},
	{
		"cityCode" : 4200556,
		"name" : "Águas Frias",
		"latitude" : -26.8794,
		"longitude" : -52.8568,
		"isCapitalCity" : false,
		"stateInitials" : "SC"
	},
	{
		"cityCode" : 5200258,
		"name" : "Águas Lindas de Goiás",
		"latitude" : -15.7617,
		"longitude" : -48.2816,
		"isCapitalCity" : false,
		"stateInitials" : "PA"
	},
	{
		"cityCode" : 4200606,
		"name" : "Águas Mornas",
		"latitude" : -27.6963,
		"longitude" : -48.8243,
		"isCapitalCity" : false,
		"stateInitials" : "SC"
	},
	{
		"cityCode" : 3101003,
		"name" : "Águas Vermelhas",
		"latitude" : -15.7431,
		"longitude" : -41.4571,
		"isCapitalCity" : false,
		"stateInitials" : "MG"
	},
	{
		"cityCode" : 4300109,
		"name" : "Agudo",
		"latitude" : -29.6447,
		"longitude" : -53.2515,
		"isCapitalCity" : false,
		"stateInitials" : "RS"
	},
	{
		"cityCode" : 3500709,
		"name" : "Agudos",
		"latitude" : -22.4694,
		"longitude" : -48.9863,
		"isCapitalCity" : false,
		"stateInitials" : "SP"
	},
	{
		"cityCode" : 4100301,
		"name" : "Agudos do Sul",
		"latitude" : -25.9899,
		"longitude" : -49.3343,
		"isCapitalCity" : false,
		"stateInitials" : "PR"
	},
	{
		"cityCode" : 3200136,
		"name" : "Águia Branca",
		"latitude" : -18.9846,
		"longitude" : -40.7437,
		"isCapitalCity" : false,
		"stateInitials" : "ES"
	},
	{
		"cityCode" : 2500205,
		"name" : "Aguiar",
		"latitude" : -7.0918,
		"longitude" : -38.1681,
		"isCapitalCity" : false,
		"stateInitials" : "PB"
	},
	{
		"cityCode" : 1700301,
		"name" : "Aguiarnópolis",
		"latitude" : -6.55409,
		"longitude" : -47.4702,
		"isCapitalCity" : false,
		"stateInitials" : "TO"
	},
	{
		"cityCode" : 3101102,
		"name" : "Aimorés",
		"latitude" : -19.5007,
		"longitude" : -41.0746,
		"isCapitalCity" : false,
		"stateInitials" : "MG"
	},
	{
		"cityCode" : 2900603,
		"name" : "Aiquara",
		"latitude" : -14.1269,
		"longitude" : -39.8937,
		"isCapitalCity" : false,
		"stateInitials" : "BA"
	},
	{
		"cityCode" : 2300408,
		"name" : "Aiuaba",
		"latitude" : -6.57122,
		"longitude" : -40.1178,
		"isCapitalCity" : false,
		"stateInitials" : "CE"
	},
	{
		"cityCode" : 3101201,
		"name" : "Aiuruoca",
		"latitude" : -21.9736,
		"longitude" : -44.6042,
		"isCapitalCity" : false,
		"stateInitials" : "MG"
	},
	{
		"cityCode" : 4300208,
		"name" : "Ajuricaba",
		"latitude" : -28.2342,
		"longitude" : -53.7757,
		"isCapitalCity" : false,
		"stateInitials" : "RS"
	},
	{
		"cityCode" : 3101300,
		"name" : "Alagoa",
		"latitude" : -22.171,
		"longitude" : -44.6413,
		"isCapitalCity" : false,
		"stateInitials" : "MG"
	},
	{
		"cityCode" : 2500304,
		"name" : "Alagoa Grande",
		"latitude" : -7.03943,
		"longitude" : -35.6206,
		"isCapitalCity" : false,
		"stateInitials" : "PB"
	},
	{
		"cityCode" : 2500403,
		"name" : "Alagoa Nova",
		"latitude" : -7.05377,
		"longitude" : -35.7591,
		"isCapitalCity" : false,
		"stateInitials" : "PB"
	},
	{
		"cityCode" : 2500502,
		"name" : "Alagoinha",
		"latitude" : -6.94657,
		"longitude" : -35.5332,
		"isCapitalCity" : false,
		"stateInitials" : "PB"
	},
	{
		"cityCode" : 2600609,
		"name" : "Alagoinha",
		"latitude" : -8.4665,
		"longitude" : -36.7788,
		"isCapitalCity" : false,
		"stateInitials" : "PE"
	},
	{
		"cityCode" : 2200251,
		"name" : "Alagoinha do Piauí",
		"latitude" : -7.00039,
		"longitude" : -40.9282,
		"isCapitalCity" : false,
		"stateInitials" : "PI"
	},
	{
		"cityCode" : 2900702,
		"name" : "Alagoinhas",
		"latitude" : -12.1335,
		"longitude" : -38.4208,
		"isCapitalCity" : false,
		"stateInitials" : "BA"
	},
	{
		"cityCode" : 3500758,
		"name" : "Alambari",
		"latitude" : -23.5503,
		"longitude" : -47.898,
		"isCapitalCity" : false,
		"stateInitials" : "SP"
	},
	{
		"cityCode" : 3101409,
		"name" : "Albertina",
		"latitude" : -22.2018,
		"longitude" : -46.6139,
		"isCapitalCity" : false,
		"stateInitials" : "MG"
	},
	{
		"cityCode" : 2100204,
		"name" : "Alcântara",
		"latitude" : -2.39574,
		"longitude" : -44.4062,
		"isCapitalCity" : false,
		"stateInitials" : "MA"
	},
	{
		"cityCode" : 2300507,
		"name" : "Alcântaras",
		"latitude" : -3.58537,
		"longitude" : -40.5479,
		"isCapitalCity" : false,
		"stateInitials" : "CE"
	},
	{
		"cityCode" : 2500536,
		"name" : "Alcantil",
		"latitude" : -7.73668,
		"longitude" : -36.0511,
		"isCapitalCity" : false,
		"stateInitials" : "PB"
	},
	{
		"cityCode" : 5000252,
		"name" : "Alcinópolis",
		"latitude" : -18.3255,
		"longitude" : -53.7042,
		"isCapitalCity" : false,
		"stateInitials" : "MS"
	},
	{
		"cityCode" : 2900801,
		"name" : "Alcobaça",
		"latitude" : -17.5195,
		"longitude" : -39.2036,
		"isCapitalCity" : false,
		"stateInitials" : "BA"
	},
	{
		"cityCode" : 2100303,
		"name" : "Aldeias Altas",
		"latitude" : -4.62621,
		"longitude" : -43.4689,
		"isCapitalCity" : false,
		"stateInitials" : "MA"
	},
	{
		"cityCode" : 4300307,
		"name" : "Alecrim",
		"latitude" : -27.6579,
		"longitude" : -54.7649,
		"isCapitalCity" : false,
		"stateInitials" : "RS"
	},
	{
		"cityCode" : 3200201,
		"name" : "Alegre",
		"latitude" : -20.758,
		"longitude" : -41.5382,
		"isCapitalCity" : false,
		"stateInitials" : "ES"
	},
	{
		"cityCode" : 4300406,
		"name" : "Alegrete",
		"latitude" : -29.7902,
		"longitude" : -55.7949,
		"isCapitalCity" : false,
		"stateInitials" : "RS"
	},
	{
		"cityCode" : 2200277,
		"name" : "Alegrete do Piauí",
		"latitude" : -7.24196,
		"longitude" : -40.8566,
		"isCapitalCity" : false,
		"stateInitials" : "PI"
	},
	{
		"cityCode" : 4300455,
		"name" : "Alegria",
		"latitude" : -27.8345,
		"longitude" : -54.0557,
		"isCapitalCity" : false,
		"stateInitials" : "RS"
	},
	{
		"cityCode" : 3101508,
		"name" : "Além Paraíba",
		"latitude" : -21.8797,
		"longitude" : -42.7176,
		"isCapitalCity" : false,
		"stateInitials" : "MG"
	},
	{
		"cityCode" : 1500404,
		"name" : "Alenquer",
		"latitude" : -1.94623,
		"longitude" : -54.7384,
		"isCapitalCity" : false,
		"stateInitials" : "PA"
	},
	{
		"cityCode" : 2400505,
		"name" : "Alexandria",
		"latitude" : -6.40533,
		"longitude" : -38.0142,
		"isCapitalCity" : false,
		"stateInitials" : "RN"
	},
	{
		"cityCode" : 5200308,
		"name" : "Alexânia",
		"latitude" : -16.0834,
		"longitude" : -48.5076,
		"isCapitalCity" : false,
		"stateInitials" : "PA"
	},
	{
		"cityCode" : 3101607,
		"name" : "Alfenas",
		"latitude" : -21.4256,
		"longitude" : -45.9477,
		"isCapitalCity" : false,
		"stateInitials" : "MG"
	},
	{
		"cityCode" : 3200300,
		"name" : "Alfredo Chaves",
		"latitude" : -20.6396,
		"longitude" : -40.7543,
		"isCapitalCity" : false,
		"stateInitials" : "ES"
	},
	{
		"cityCode" : 3500808,
		"name" : "Alfredo Marcondes",
		"latitude" : -21.9527,
		"longitude" : -51.414,
		"isCapitalCity" : false,
		"stateInitials" : "SP"
	},
	{
		"cityCode" : 3101631,
		"name" : "Alfredo Vasconcelos",
		"latitude" : -21.1535,
		"longitude" : -43.7718,
		"isCapitalCity" : false,
		"stateInitials" : "MG"
	},
	{
		"cityCode" : 4200705,
		"name" : "Alfredo Wagner",
		"latitude" : -27.7001,
		"longitude" : -49.3273,
		"isCapitalCity" : false,
		"stateInitials" : "SC"
	},
	{
		"cityCode" : 2500577,
		"name" : "Algodão de Jandaíra",
		"latitude" : -6.89292,
		"longitude" : -36.0129,
		"isCapitalCity" : false,
		"stateInitials" : "PB"
	},
	{
		"cityCode" : 2500601,
		"name" : "Alhandra",
		"latitude" : -7.42977,
		"longitude" : -34.9057,
		"isCapitalCity" : false,
		"stateInitials" : "PB"
	},
	{
		"cityCode" : 2600708,
		"name" : "Aliança",
		"latitude" : -7.60398,
		"longitude" : -35.2227,
		"isCapitalCity" : false,
		"stateInitials" : "PE"
	},
	{
		"cityCode" : 1700350,
		"name" : "Aliança do Tocantins",
		"latitude" : -11.3056,
		"longitude" : -48.9361,
		"isCapitalCity" : false,
		"stateInitials" : "TO"
	},
	{
		"cityCode" : 2900900,
		"name" : "Almadina",
		"latitude" : -14.7089,
		"longitude" : -39.6415,
		"isCapitalCity" : false,
		"stateInitials" : "BA"
	},
	{
		"cityCode" : 1700400,
		"name" : "Almas",
		"latitude" : -11.5706,
		"longitude" : -47.1792,
		"isCapitalCity" : false,
		"stateInitials" : "TO"
	},
	{
		"cityCode" : 1500503,
		"name" : "Almeirim",
		"latitude" : -1.52904,
		"longitude" : -52.5788,
		"isCapitalCity" : false,
		"stateInitials" : "PA"
	},
	{
		"cityCode" : 3101706,
		"name" : "Almenara",
		"latitude" : -16.1785,
		"longitude" : -40.6942,
		"isCapitalCity" : false,
		"stateInitials" : "MG"
	},
	{
		"cityCode" : 2400604,
		"name" : "Almino Afonso",
		"latitude" : -6.1475,
		"longitude" : -37.7636,
		"isCapitalCity" : false,
		"stateInitials" : "RN"
	},
	{
		"cityCode" : 4100400,
		"name" : "Almirante Tamandaré",
		"latitude" : -25.3188,
		"longitude" : -49.3037,
		"isCapitalCity" : false,
		"stateInitials" : "PR"
	},
	{
		"cityCode" : 4300471,
		"name" : "Almirante Tamandaré do Sul",
		"latitude" : -28.1149,
		"longitude" : -52.9142,
		"isCapitalCity" : false,
		"stateInitials" : "RS"
	},
	{
		"cityCode" : 5200506,
		"name" : "Aloândia",
		"latitude" : -17.7292,
		"longitude" : -49.4769,
		"isCapitalCity" : false,
		"stateInitials" : "PA"
	},
	{
		"cityCode" : 3101805,
		"name" : "Alpercata",
		"latitude" : -18.974,
		"longitude" : -41.97,
		"isCapitalCity" : false,
		"stateInitials" : "MG"
	},
	{
		"cityCode" : 4300505,
		"name" : "Alpestre",
		"latitude" : -27.2502,
		"longitude" : -53.0341,
		"isCapitalCity" : false,
		"stateInitials" : "RS"
	},
	{
		"cityCode" : 3101904,
		"name" : "Alpinópolis",
		"latitude" : -20.8631,
		"longitude" : -46.3878,
		"isCapitalCity" : false,
		"stateInitials" : "MG"
	},
	{
		"cityCode" : 5100250,
		"name" : "Alta Floresta",
		"latitude" : -9.86674,
		"longitude" : -56.0867,
		"isCapitalCity" : false,
		"stateInitials" : "MT"
	},
	{
		"cityCode" : 1100015,
		"name" : "Alta Floresta D'Oeste",
		"latitude" : -11.9283,
		"longitude" : -61.9953,
		"isCapitalCity" : false,
		"stateInitials" : "RO"
	},
	{
		"cityCode" : 3500907,
		"name" : "Altair",
		"latitude" : -20.5242,
		"longitude" : -49.0571,
		"isCapitalCity" : false,
		"stateInitials" : "SP"
	},
	{
		"cityCode" : 1500602,
		"name" : "Altamira",
		"latitude" : -3.20407,
		"longitude" : -52.21,
		"isCapitalCity" : false,
		"stateInitials" : "PA"
	},
	{
		"cityCode" : 2100402,
		"name" : "Altamira do Maranhão",
		"latitude" : -4.16598,
		"longitude" : -45.4706,
		"isCapitalCity" : false,
		"stateInitials" : "MA"
	},
	{
		"cityCode" : 4100459,
		"name" : "Altamira do Paraná",
		"latitude" : -24.7983,
		"longitude" : -52.7128,
		"isCapitalCity" : false,
		"stateInitials" : "PR"
	},
	{
		"cityCode" : 2300606,
		"name" : "Altaneira",
		"latitude" : -6.99837,
		"longitude" : -39.7356,
		"isCapitalCity" : false,
		"stateInitials" : "CE"
	},
	{
		"cityCode" : 3102001,
		"name" : "Alterosa",
		"latitude" : -21.2488,
		"longitude" : -46.1387,
		"isCapitalCity" : false,
		"stateInitials" : "MG"
	},
	{
		"cityCode" : 2600807,
		"name" : "Altinho",
		"latitude" : -8.48482,
		"longitude" : -36.0644,
		"isCapitalCity" : false,
		"stateInitials" : "PE"
	},
	{
		"cityCode" : 3501004,
		"name" : "Altinópolis",
		"latitude" : -21.0214,
		"longitude" : -47.3712,
		"isCapitalCity" : false,
		"stateInitials" : "SP"
	},
	{
		"cityCode" : 3501103,
		"name" : "Alto Alegre",
		"latitude" : -21.5811,
		"longitude" : -50.168,
		"isCapitalCity" : false,
		"stateInitials" : "SP"
	},
	{
		"cityCode" : 1400050,
		"name" : "Alto Alegre",
		"latitude" : 2.98858,
		"longitude" : -61.3072,
		"isCapitalCity" : false,
		"stateInitials" : "RR"
	},
	{
		"cityCode" : 4300554,
		"name" : "Alto Alegre",
		"latitude" : -28.7769,
		"longitude" : -52.9893,
		"isCapitalCity" : false,
		"stateInitials" : "RS"
	},
	{
		"cityCode" : 2100436,
		"name" : "Alto Alegre do Maranhão",
		"latitude" : -4.213,
		"longitude" : -44.446,
		"isCapitalCity" : false,
		"stateInitials" : "MA"
	},
	{
		"cityCode" : 2100477,
		"name" : "Alto Alegre do Pindaré",
		"latitude" : -3.66689,
		"longitude" : -45.8421,
		"isCapitalCity" : false,
		"stateInitials" : "MA"
	},
	{
		"cityCode" : 1100379,
		"name" : "Alto Alegre dos Parecis",
		"latitude" : -12.132,
		"longitude" : -61.835,
		"isCapitalCity" : false,
		"stateInitials" : "RO"
	},
	{
		"cityCode" : 5100300,
		"name" : "Alto Araguaia",
		"latitude" : -17.3153,
		"longitude" : -53.2181,
		"isCapitalCity" : false,
		"stateInitials" : "MT"
	},
	{
		"cityCode" : 4200754,
		"name" : "Alto Bela Vista",
		"latitude" : -27.4333,
		"longitude" : -51.9044,
		"isCapitalCity" : false,
		"stateInitials" : "SC"
	},
	{
		"cityCode" : 5100359,
		"name" : "Alto Boa Vista",
		"latitude" : -11.6732,
		"longitude" : -51.3883,
		"isCapitalCity" : false,
		"stateInitials" : "MT"
	},
	{
		"cityCode" : 3102050,
		"name" : "Alto Caparaó",
		"latitude" : -20.431,
		"longitude" : -41.8738,
		"isCapitalCity" : false,
		"stateInitials" : "MG"
	},
	{
		"cityCode" : 2400703,
		"name" : "Alto do Rodrigues",
		"latitude" : -5.28186,
		"longitude" : -36.75,
		"isCapitalCity" : false,
		"stateInitials" : "RN"
	},
	{
		"cityCode" : 4300570,
		"name" : "Alto Feliz",
		"latitude" : -29.3919,
		"longitude" : -51.3123,
		"isCapitalCity" : false,
		"stateInitials" : "RS"
	},
	{
		"cityCode" : 5100409,
		"name" : "Alto Garças",
		"latitude" : -16.9462,
		"longitude" : -53.5272,
		"isCapitalCity" : false,
		"stateInitials" : "MT"
	},
	{
		"cityCode" : 5200555,
		"name" : "Alto Horizonte",
		"latitude" : -14.1978,
		"longitude" : -49.3378,
		"isCapitalCity" : false,
		"stateInitials" : "PA"
	},
	{
		"cityCode" : 3153509,
		"name" : "Alto Jequitibá",
		"latitude" : -20.4208,
		"longitude" : -41.967,
		"isCapitalCity" : false,
		"stateInitials" : "MG"
	},
	{
		"cityCode" : 2200301,
		"name" : "Alto Longá",
		"latitude" : -5.25634,
		"longitude" : -42.2096,
		"isCapitalCity" : false,
		"stateInitials" : "PI"
	},
	{
		"cityCode" : 5100508,
		"name" : "Alto Paraguai",
		"latitude" : -14.5137,
		"longitude" : -56.4776,
		"isCapitalCity" : false,
		"stateInitials" : "MT"
	},
	{
		"cityCode" : 4128625,
		"name" : "Alto Paraíso",
		"latitude" : -26.1146,
		"longitude" : -52.7469,
		"isCapitalCity" : false,
		"stateInitials" : "PR"
	},
	{
		"cityCode" : 1100403,
		"name" : "Alto Paraíso",
		"latitude" : -9.71429,
		"longitude" : -63.3188,
		"isCapitalCity" : false,
		"stateInitials" : "RO"
	},
	{
		"cityCode" : 5200605,
		"name" : "Alto Paraíso de Goiás",
		"latitude" : -14.1305,
		"longitude" : -47.51,
		"isCapitalCity" : false,
		"stateInitials" : "PA"
	},
	{
		"cityCode" : 4100608,
		"name" : "Alto Paraná",
		"latitude" : -23.1312,
		"longitude" : -52.3189,
		"isCapitalCity" : false,
		"stateInitials" : "PR"
	},
	{
		"cityCode" : 2100501,
		"name" : "Alto Parnaíba",
		"latitude" : -9.10273,
		"longitude" : -45.9303,
		"isCapitalCity" : false,
		"stateInitials" : "MA"
	},
	{
		"cityCode" : 4100707,
		"name" : "Alto Piquiri",
		"latitude" : -24.0224,
		"longitude" : -53.44,
		"isCapitalCity" : false,
		"stateInitials" : "PR"
	},
	{
		"cityCode" : 3102100,
		"name" : "Alto Rio Doce",
		"latitude" : -21.0281,
		"longitude" : -43.4067,
		"isCapitalCity" : false,
		"stateInitials" : "MG"
	},
	{
		"cityCode" : 3200359,
		"name" : "Alto Rio Novo",
		"latitude" : -19.0618,
		"longitude" : -41.0209,
		"isCapitalCity" : false,
		"stateInitials" : "ES"
	},
	{
		"cityCode" : 2300705,
		"name" : "Alto Santo",
		"latitude" : -5.50894,
		"longitude" : -38.2743,
		"isCapitalCity" : false,
		"stateInitials" : "CE"
	},
	{
		"cityCode" : 5100607,
		"name" : "Alto Taquari",
		"latitude" : -17.8241,
		"longitude" : -53.2792,
		"isCapitalCity" : false,
		"stateInitials" : "MT"
	},
	{
		"cityCode" : 4100509,
		"name" : "Altônia",
		"latitude" : -23.8759,
		"longitude" : -53.8958,
		"isCapitalCity" : false,
		"stateInitials" : "PR"
	},
	{
		"cityCode" : 2200400,
		"name" : "Altos",
		"latitude" : -5.03888,
		"longitude" : -42.4612,
		"isCapitalCity" : false,
		"stateInitials" : "PI"
	},
	{
		"cityCode" : 3501152,
		"name" : "Alumínio",
		"latitude" : -23.5306,
		"longitude" : -47.2546,
		"isCapitalCity" : false,
		"stateInitials" : "SP"
	},
	{
		"cityCode" : 1300029,
		"name" : "Alvarães",
		"latitude" : -3.22727,
		"longitude" : -64.8007,
		"isCapitalCity" : false,
		"stateInitials" : "AM"
	},
	{
		"cityCode" : 3102209,
		"name" : "Alvarenga",
		"latitude" : -19.4174,
		"longitude" : -41.7317,
		"isCapitalCity" : false,
		"stateInitials" : "MG"
	},
	{
		"cityCode" : 3501202,
		"name" : "Álvares Florence",
		"latitude" : -20.3203,
		"longitude" : -49.9141,
		"isCapitalCity" : false,
		"stateInitials" : "SP"
	},
	{
		"cityCode" : 3501301,
		"name" : "Álvares Machado",
		"latitude" : -22.0764,
		"longitude" : -51.4722,
		"isCapitalCity" : false,
		"stateInitials" : "SP"
	},
	{
		"cityCode" : 3501400,
		"name" : "Álvaro de Carvalho",
		"latitude" : -22.0841,
		"longitude" : -49.719,
		"isCapitalCity" : false,
		"stateInitials" : "SP"
	},
	{
		"cityCode" : 3501509,
		"name" : "Alvinlândia",
		"latitude" : -22.4435,
		"longitude" : -49.7623,
		"isCapitalCity" : false,
		"stateInitials" : "SP"
	},
	{
		"cityCode" : 3102308,
		"name" : "Alvinópolis",
		"latitude" : -20.1098,
		"longitude" : -43.0535,
		"isCapitalCity" : false,
		"stateInitials" : "MG"
	},
	{
		"cityCode" : 1700707,
		"name" : "Alvorada",
		"latitude" : -12.4785,
		"longitude" : -49.1249,
		"isCapitalCity" : false,
		"stateInitials" : "TO"
	},
	{
		"cityCode" : 4300604,
		"name" : "Alvorada",
		"latitude" : -29.9914,
		"longitude" : -51.0809,
		"isCapitalCity" : false,
		"stateInitials" : "RS"
	},
	{
		"cityCode" : 1100346,
		"name" : "Alvorada D'Oeste",
		"latitude" : -11.3463,
		"longitude" : -62.2847,
		"isCapitalCity" : false,
		"stateInitials" : "RO"
	},
	{
		"cityCode" : 3102407,
		"name" : "Alvorada de Minas",
		"latitude" : -18.7334,
		"longitude" : -43.3638,
		"isCapitalCity" : false,
		"stateInitials" : "MG"
	},
	{
		"cityCode" : 2200459,
		"name" : "Alvorada do Gurguéia",
		"latitude" : -8.42418,
		"longitude" : -43.777,
		"isCapitalCity" : false,
		"stateInitials" : "PI"
	},
	{
		"cityCode" : 5200803,
		"name" : "Alvorada do Norte",
		"latitude" : -14.4797,
		"longitude" : -46.491,
		"isCapitalCity" : false,
		"stateInitials" : "PA"
	},
	{
		"cityCode" : 4100806,
		"name" : "Alvorada do Sul",
		"latitude" : -22.7813,
		"longitude" : -51.2297,
		"isCapitalCity" : false,
		"stateInitials" : "PR"
	},
	{
		"cityCode" : 1400027,
		"name" : "Amajari",
		"latitude" : 3.64571,
		"longitude" : -61.3692,
		"isCapitalCity" : false,
		"stateInitials" : "RR"
	},
	{
		"cityCode" : 5000609,
		"name" : "Amambai",
		"latitude" : -23.1058,
		"longitude" : -55.2253,
		"isCapitalCity" : false,
		"stateInitials" : "MS"
	},
	{
		"cityCode" : 1600105,
		"name" : "Amapá",
		"latitude" : 2.05267,
		"longitude" : -50.7957,
		"isCapitalCity" : false,
		"stateInitials" : "AP"
	},
	{
		"cityCode" : 2100550,
		"name" : "Amapá do Maranhão",
		"latitude" : -1.67524,
		"longitude" : -46.0024,
		"isCapitalCity" : false,
		"stateInitials" : "MA"
	},
	{
		"cityCode" : 4100905,
		"name" : "Amaporã",
		"latitude" : -23.0943,
		"longitude" : -52.7866,
		"isCapitalCity" : false,
		"stateInitials" : "PR"
	},
	{
		"cityCode" : 2600906,
		"name" : "Amaraji",
		"latitude" : -8.37691,
		"longitude" : -35.4501,
		"isCapitalCity" : false,
		"stateInitials" : "PE"
	},
	{
		"cityCode" : 4300638,
		"name" : "Amaral Ferrador",
		"latitude" : -30.8756,
		"longitude" : -52.2509,
		"isCapitalCity" : false,
		"stateInitials" : "RS"
	},
	{
		"cityCode" : 5200829,
		"name" : "Amaralina",
		"latitude" : -13.9236,
		"longitude" : -49.2962,
		"isCapitalCity" : false,
		"stateInitials" : "PA"
	},
	{
		"cityCode" : 2200509,
		"name" : "Amarante",
		"latitude" : -6.24304,
		"longitude" : -42.8433,
		"isCapitalCity" : false,
		"stateInitials" : "PI"
	},
	{
		"cityCode" : 2100600,
		"name" : "Amarante do Maranhão",
		"latitude" : -5.56913,
		"longitude" : -46.7473,
		"isCapitalCity" : false,
		"stateInitials" : "MA"
	},
	{
		"cityCode" : 2901007,
		"name" : "Amargosa",
		"latitude" : -13.0215,
		"longitude" : -39.602,
		"isCapitalCity" : false,
		"stateInitials" : "BA"
	},
	{
		"cityCode" : 1300060,
		"name" : "Amaturá",
		"latitude" : -3.37455,
		"longitude" : -68.2005,
		"isCapitalCity" : false,
		"stateInitials" : "AM"
	},
	{
		"cityCode" : 2901106,
		"name" : "Amélia Rodrigues",
		"latitude" : -12.3914,
		"longitude" : -38.7563,
		"isCapitalCity" : false,
		"stateInitials" : "BA"
	},
	{
		"cityCode" : 2901155,
		"name" : "América Dourada",
		"latitude" : -11.4429,
		"longitude" : -41.439,
		"isCapitalCity" : false,
		"stateInitials" : "BA"
	},
	{
		"cityCode" : 3501608,
		"name" : "Americana",
		"latitude" : -22.7374,
		"longitude" : -47.3331,
		"isCapitalCity" : false,
		"stateInitials" : "SP"
	},
	{
		"cityCode" : 5200852,
		"name" : "Americano do Brasil",
		"latitude" : -16.2514,
		"longitude" : -49.9831,
		"isCapitalCity" : false,
		"stateInitials" : "PA"
	},
	{
		"cityCode" : 3501707,
		"name" : "Américo Brasiliense",
		"latitude" : -21.7288,
		"longitude" : -48.1147,
		"isCapitalCity" : false,
		"stateInitials" : "SP"
	},
	{
		"cityCode" : 3501806,
		"name" : "Américo de Campos",
		"latitude" : -20.2985,
		"longitude" : -49.7359,
		"isCapitalCity" : false,
		"stateInitials" : "SP"
	},
	{
		"cityCode" : 4300646,
		"name" : "Ametista do Sul",
		"latitude" : -27.3607,
		"longitude" : -53.183,
		"isCapitalCity" : false,
		"stateInitials" : "RS"
	},
	{
		"cityCode" : 2300754,
		"name" : "Amontada",
		"latitude" : -3.36017,
		"longitude" : -39.8288,
		"isCapitalCity" : false,
		"stateInitials" : "CE"
	},
	{
		"cityCode" : 5200902,
		"name" : "Amorinópolis",
		"latitude" : -16.6151,
		"longitude" : -51.0919,
		"isCapitalCity" : false,
		"stateInitials" : "PA"
	},
	{
		"cityCode" : 2500734,
		"name" : "Amparo",
		"latitude" : -7.55502,
		"longitude" : -37.0628,
		"isCapitalCity" : false,
		"stateInitials" : "PB"
	},
	{
		"cityCode" : 3501905,
		"name" : "Amparo",
		"latitude" : -22.7088,
		"longitude" : -46.772,
		"isCapitalCity" : false,
		"stateInitials" : "SP"
	},
	{
		"cityCode" : 2800100,
		"name" : "Amparo de São Francisco",
		"latitude" : -10.1348,
		"longitude" : -36.935,
		"isCapitalCity" : false,
		"stateInitials" : "SE"
	},
	{
		"cityCode" : 3102506,
		"name" : "Amparo do Serra",
		"latitude" : -20.5051,
		"longitude" : -42.8009,
		"isCapitalCity" : false,
		"stateInitials" : "MG"
	},
	{
		"cityCode" : 4101002,
		"name" : "Ampére",
		"latitude" : -25.9168,
		"longitude" : -53.4686,
		"isCapitalCity" : false,
		"stateInitials" : "PR"
	},
	{
		"cityCode" : 2700201,
		"name" : "Anadia",
		"latitude" : -9.68489,
		"longitude" : -36.3078,
		"isCapitalCity" : false,
		"stateInitials" : "AL"
	},
	{
		"cityCode" : 2901205,
		"name" : "Anagé",
		"latitude" : -14.6151,
		"longitude" : -41.1356,
		"isCapitalCity" : false,
		"stateInitials" : "BA"
	},
	{
		"cityCode" : 4101051,
		"name" : "Anahy",
		"latitude" : -24.6449,
		"longitude" : -53.1332,
		"isCapitalCity" : false,
		"stateInitials" : "PR"
	},
	{
		"cityCode" : 1500701,
		"name" : "Anajás",
		"latitude" : -0.996811,
		"longitude" : -49.9354,
		"isCapitalCity" : false,
		"stateInitials" : "PA"
	},
	{
		"cityCode" : 2100709,
		"name" : "Anajatuba",
		"latitude" : -3.26269,
		"longitude" : -44.6126,
		"isCapitalCity" : false,
		"stateInitials" : "MA"
	},
	{
		"cityCode" : 3502002,
		"name" : "Analândia",
		"latitude" : -22.1289,
		"longitude" : -47.6619,
		"isCapitalCity" : false,
		"stateInitials" : "SP"
	},
	{
		"cityCode" : 1300086,
		"name" : "Anamã",
		"latitude" : -3.56697,
		"longitude" : -61.3963,
		"isCapitalCity" : false,
		"stateInitials" : "AM"
	},
	{
		"cityCode" : 1701002,
		"name" : "Ananás",
		"latitude" : -6.36437,
		"longitude" : -48.0735,
		"isCapitalCity" : false,
		"stateInitials" : "TO"
	},
	{
		"cityCode" : 1500800,
		"name" : "Ananindeua",
		"latitude" : -1.36391,
		"longitude" : -48.3743,
		"isCapitalCity" : false,
		"stateInitials" : "PA",
        "nfseKeyword": "ginfes"
	},
	{
		"cityCode" : 5201108,
		"name" : "Anápolis",
		"latitude" : -16.3281,
		"longitude" : -48.953,
		"isCapitalCity" : false,
		"stateInitials" : "PA"
	},
	{
		"cityCode" : 1500859,
		"name" : "Anapu",
		"latitude" : -3.46985,
		"longitude" : -51.2003,
		"isCapitalCity" : false,
		"stateInitials" : "PA"
	},
	{
		"cityCode" : 2100808,
		"name" : "Anapurus",
		"latitude" : -3.67577,
		"longitude" : -43.1014,
		"isCapitalCity" : false,
		"stateInitials" : "MA"
	},
	{
		"cityCode" : 5000708,
		"name" : "Anastácio",
		"latitude" : -20.4823,
		"longitude" : -55.8104,
		"isCapitalCity" : false,
		"stateInitials" : "MS"
	},
	{
		"cityCode" : 5000807,
		"name" : "Anaurilândia",
		"latitude" : -22.1852,
		"longitude" : -52.7191,
		"isCapitalCity" : false,
		"stateInitials" : "MS"
	},
	{
		"cityCode" : 4200804,
		"name" : "Anchieta",
		"latitude" : -26.5382,
		"longitude" : -53.3319,
		"isCapitalCity" : false,
		"stateInitials" : "SC"
	},
	{
		"cityCode" : 3200409,
		"name" : "Anchieta",
		"latitude" : -20.7955,
		"longitude" : -40.6425,
		"isCapitalCity" : false,
		"stateInitials" : "ES"
	},
	{
		"cityCode" : 2901304,
		"name" : "Andaraí",
		"latitude" : -12.8049,
		"longitude" : -41.3297,
		"isCapitalCity" : false,
		"stateInitials" : "BA"
	},
	{
		"cityCode" : 4101101,
		"name" : "Andirá",
		"latitude" : -23.0533,
		"longitude" : -50.2304,
		"isCapitalCity" : false,
		"stateInitials" : "PR"
	},
	{
		"cityCode" : 2901353,
		"name" : "Andorinha",
		"latitude" : -10.3482,
		"longitude" : -39.8391,
		"isCapitalCity" : false,
		"stateInitials" : "BA"
	},
	{
		"cityCode" : 3102605,
		"name" : "Andradas",
		"latitude" : -22.0695,
		"longitude" : -46.5724,
		"isCapitalCity" : false,
		"stateInitials" : "MG"
	},
	{
		"cityCode" : 3502101,
		"name" : "Andradina",
		"latitude" : -20.8948,
		"longitude" : -51.3786,
		"isCapitalCity" : false,
		"stateInitials" : "SP"
	},
	{
		"cityCode" : 4300661,
		"name" : "André da Rocha",
		"latitude" : -28.6283,
		"longitude" : -51.5797,
		"isCapitalCity" : false,
		"stateInitials" : "RS"
	},
	{
		"cityCode" : 3102803,
		"name" : "Andrelândia",
		"latitude" : -21.7411,
		"longitude" : -44.3117,
		"isCapitalCity" : false,
		"stateInitials" : "MG"
	},
	{
		"cityCode" : 3502200,
		"name" : "Angatuba",
		"latitude" : -23.4917,
		"longitude" : -48.4139,
		"isCapitalCity" : false,
		"stateInitials" : "SP"
	},
	{
		"cityCode" : 3102852,
		"name" : "Angelândia",
		"latitude" : -17.7279,
		"longitude" : -42.2641,
		"isCapitalCity" : false,
		"stateInitials" : "MG"
	},
	{
		"cityCode" : 5000856,
		"name" : "Angélica",
		"latitude" : -22.1527,
		"longitude" : -53.7708,
		"isCapitalCity" : false,
		"stateInitials" : "MS"
	},
	{
		"cityCode" : 2601003,
		"name" : "Angelim",
		"latitude" : -8.88429,
		"longitude" : -36.2902,
		"isCapitalCity" : false,
		"stateInitials" : "PE"
	},
	{
		"cityCode" : 4200903,
		"name" : "Angelina",
		"latitude" : -27.5704,
		"longitude" : -48.9879,
		"isCapitalCity" : false,
		"stateInitials" : "SC"
	},
	{
		"cityCode" : 2901403,
		"name" : "Angical",
		"latitude" : -12.0063,
		"longitude" : -44.7003,
		"isCapitalCity" : false,
		"stateInitials" : "BA"
	},
	{
		"cityCode" : 2200608,
		"name" : "Angical do Piauí",
		"latitude" : -6.08786,
		"longitude" : -42.74,
		"isCapitalCity" : false,
		"stateInitials" : "PI"
	},
	{
		"cityCode" : 1701051,
		"name" : "Angico",
		"latitude" : -6.39179,
		"longitude" : -47.8611,
		"isCapitalCity" : false,
		"stateInitials" : "TO"
	},
	{
		"cityCode" : 2400802,
		"name" : "Angicos",
		"latitude" : -5.65792,
		"longitude" : -36.6094,
		"isCapitalCity" : false,
		"stateInitials" : "RN"
	},
	{
		"cityCode" : 3300100,
		"name" : "Angra dos Reis",
		"latitude" : -23.0011,
		"longitude" : -44.3196,
		"isCapitalCity" : false,
		"stateInitials" : "RJ"
	},
	{
		"cityCode" : 2901502,
		"name" : "Anguera",
		"latitude" : -12.1462,
		"longitude" : -39.2462,
		"isCapitalCity" : false,
		"stateInitials" : "BA"
	},
	{
		"cityCode" : 4101150,
		"name" : "Ângulo",
		"latitude" : -23.1946,
		"longitude" : -51.9154,
		"isCapitalCity" : false,
		"stateInitials" : "PR"
	},
	{
		"cityCode" : 5201207,
		"name" : "Anhanguera",
		"latitude" : -18.3339,
		"longitude" : -48.2204,
		"isCapitalCity" : false,
		"stateInitials" : "PA"
	},
	{
		"cityCode" : 3502309,
		"name" : "Anhembi",
		"latitude" : -22.793,
		"longitude" : -48.1336,
		"isCapitalCity" : false,
		"stateInitials" : "SP"
	},
	{
		"cityCode" : 3502408,
		"name" : "Anhumas",
		"latitude" : -22.2934,
		"longitude" : -51.3895,
		"isCapitalCity" : false,
		"stateInitials" : "SP"
	},
	{
		"cityCode" : 5201306,
		"name" : "Anicuns",
		"latitude" : -16.4642,
		"longitude" : -49.9617,
		"isCapitalCity" : false,
		"stateInitials" : "PA"
	},
	{
		"cityCode" : 2200707,
		"name" : "Anísio de Abreu",
		"latitude" : -9.18564,
		"longitude" : -43.0494,
		"isCapitalCity" : false,
		"stateInitials" : "PI"
	},
	{
		"cityCode" : 4201000,
		"name" : "Anita Garibaldi",
		"latitude" : -27.6897,
		"longitude" : -51.1271,
		"isCapitalCity" : false,
		"stateInitials" : "SC"
	},
	{
		"cityCode" : 4201109,
		"name" : "Anitápolis",
		"latitude" : -27.9012,
		"longitude" : -49.1316,
		"isCapitalCity" : false,
		"stateInitials" : "SC"
	},
	{
		"cityCode" : 1300102,
		"name" : "Anori",
		"latitude" : -3.74603,
		"longitude" : -61.6575,
		"isCapitalCity" : false,
		"stateInitials" : "AM"
	},
	{
		"cityCode" : 4300703,
		"name" : "Anta Gorda",
		"latitude" : -28.9698,
		"longitude" : -52.0102,
		"isCapitalCity" : false,
		"stateInitials" : "RS"
	},
	{
		"cityCode" : 2901601,
		"name" : "Antas",
		"latitude" : -10.3856,
		"longitude" : -38.3401,
		"isCapitalCity" : false,
		"stateInitials" : "BA"
	},
	{
		"cityCode" : 4101200,
		"name" : "Antonina",
		"latitude" : -25.4386,
		"longitude" : -48.7191,
		"isCapitalCity" : false,
		"stateInitials" : "PR"
	},
	{
		"cityCode" : 2300804,
		"name" : "Antonina do Norte",
		"latitude" : -6.76919,
		"longitude" : -39.987,
		"isCapitalCity" : false,
		"stateInitials" : "CE"
	},
	{
		"cityCode" : 2200806,
		"name" : "Antônio Almeida",
		"latitude" : -7.21276,
		"longitude" : -44.1889,
		"isCapitalCity" : false,
		"stateInitials" : "PI"
	},
	{
		"cityCode" : 2901700,
		"name" : "Antônio Cardoso",
		"latitude" : -12.4335,
		"longitude" : -39.1176,
		"isCapitalCity" : false,
		"stateInitials" : "BA"
	},
	{
		"cityCode" : 4201208,
		"name" : "Antônio Carlos",
		"latitude" : -27.5191,
		"longitude" : -48.766,
		"isCapitalCity" : false,
		"stateInitials" : "SC"
	},
	{
		"cityCode" : 3102902,
		"name" : "Antônio Carlos",
		"latitude" : -21.321,
		"longitude" : -43.7451,
		"isCapitalCity" : false,
		"stateInitials" : "MG"
	},
	{
		"cityCode" : 3103009,
		"name" : "Antônio Dias",
		"latitude" : -19.6491,
		"longitude" : -42.8732,
		"isCapitalCity" : false,
		"stateInitials" : "MG"
	},
	{
		"cityCode" : 2901809,
		"name" : "Antônio Gonçalves",
		"latitude" : -10.5767,
		"longitude" : -40.2785,
		"isCapitalCity" : false,
		"stateInitials" : "BA"
	},
	{
		"cityCode" : 5000906,
		"name" : "Antônio João",
		"latitude" : -22.1927,
		"longitude" : -55.9517,
		"isCapitalCity" : false,
		"stateInitials" : "MS"
	},
	{
		"cityCode" : 2400901,
		"name" : "Antônio Martins",
		"latitude" : -6.21367,
		"longitude" : -37.8834,
		"isCapitalCity" : false,
		"stateInitials" : "RN"
	},
	{
		"cityCode" : 4101309,
		"name" : "Antônio Olinto",
		"latitude" : -25.9804,
		"longitude" : -50.1972,
		"isCapitalCity" : false,
		"stateInitials" : "PR"
	},
	{
		"cityCode" : 4300802,
		"name" : "Antônio Prado",
		"latitude" : -28.8565,
		"longitude" : -51.2883,
		"isCapitalCity" : false,
		"stateInitials" : "RS"
	},
	{
		"cityCode" : 3103108,
		"name" : "Antônio Prado de Minas",
		"latitude" : -21.0192,
		"longitude" : -42.1109,
		"isCapitalCity" : false,
		"stateInitials" : "MG"
	},
	{
		"cityCode" : 2500775,
		"name" : "Aparecida",
		"latitude" : -6.78466,
		"longitude" : -38.0803,
		"isCapitalCity" : false,
		"stateInitials" : "PB"
	},
	{
		"cityCode" : 3502507,
		"name" : "Aparecida",
		"latitude" : -22.8495,
		"longitude" : -45.2325,
		"isCapitalCity" : false,
		"stateInitials" : "SP"
	},
	{
		"cityCode" : 3502606,
		"name" : "Aparecida d'Oeste",
		"latitude" : -20.4487,
		"longitude" : -50.8835,
		"isCapitalCity" : false,
		"stateInitials" : "SP"
	},
	{
		"cityCode" : 5201405,
		"name" : "Aparecida de Goiânia",
		"latitude" : -16.8198,
		"longitude" : -49.2469,
		"isCapitalCity" : false,
		"stateInitials" : "PA"
	},
	{
		"cityCode" : 5201454,
		"name" : "Aparecida do Rio Doce",
		"latitude" : -18.2941,
		"longitude" : -51.1516,
		"isCapitalCity" : false,
		"stateInitials" : "PA"
	},
	{
		"cityCode" : 1701101,
		"name" : "Aparecida do Rio Negro",
		"latitude" : -9.94139,
		"longitude" : -47.9638,
		"isCapitalCity" : false,
		"stateInitials" : "TO"
	},
	{
		"cityCode" : 5001003,
		"name" : "Aparecida do Taboado",
		"latitude" : -20.0873,
		"longitude" : -51.0961,
		"isCapitalCity" : false,
		"stateInitials" : "MS"
	},
	{
		"cityCode" : 3300159,
		"name" : "Aperibé",
		"latitude" : -21.6252,
		"longitude" : -42.1017,
		"isCapitalCity" : false,
		"stateInitials" : "RJ"
	},
	{
		"cityCode" : 3200508,
		"name" : "Apiacá",
		"latitude" : -21.1523,
		"longitude" : -41.5693,
		"isCapitalCity" : false,
		"stateInitials" : "ES"
	},
	{
		"cityCode" : 5100805,
		"name" : "Apiacás",
		"latitude" : -9.53981,
		"longitude" : -57.4587,
		"isCapitalCity" : false,
		"stateInitials" : "MT"
	},
	{
		"cityCode" : 3502705,
		"name" : "Apiaí",
		"latitude" : -24.5108,
		"longitude" : -48.8443,
		"isCapitalCity" : false,
		"stateInitials" : "SP"
	},
	{
		"cityCode" : 2100832,
		"name" : "Apicum-Açu",
		"latitude" : -1.45862,
		"longitude" : -45.0864,
		"isCapitalCity" : false,
		"stateInitials" : "MA"
	},
	{
		"cityCode" : 4201257,
		"name" : "Apiúna",
		"latitude" : -27.0375,
		"longitude" : -49.3885,
		"isCapitalCity" : false,
		"stateInitials" : "SC"
	},
	{
		"cityCode" : 2401008,
		"name" : "Apodi",
		"latitude" : -5.65349,
		"longitude" : -37.7946,
		"isCapitalCity" : false,
		"stateInitials" : "RN"
	},
	{
		"cityCode" : 2901908,
		"name" : "Aporá",
		"latitude" : -11.6577,
		"longitude" : -38.0814,
		"isCapitalCity" : false,
		"stateInitials" : "BA"
	},
	{
		"cityCode" : 5201504,
		"name" : "Aporé",
		"latitude" : -18.9607,
		"longitude" : -51.9232,
		"isCapitalCity" : false,
		"stateInitials" : "PA"
	},
	{
		"cityCode" : 2901957,
		"name" : "Apuarema",
		"latitude" : -13.8542,
		"longitude" : -39.7501,
		"isCapitalCity" : false,
		"stateInitials" : "BA"
	},
	{
		"cityCode" : 4101408,
		"name" : "Apucarana",
		"latitude" : -23.55,
		"longitude" : -51.4635,
		"isCapitalCity" : false,
		"stateInitials" : "PR"
	},
	{
		"cityCode" : 1300144,
		"name" : "Apuí",
		"latitude" : -7.19409,
		"longitude" : -59.896,
		"isCapitalCity" : false,
		"stateInitials" : "AM"
	},
	{
		"cityCode" : 2300903,
		"name" : "Apuiarés",
		"latitude" : -3.94506,
		"longitude" : -39.4359,
		"isCapitalCity" : false,
		"stateInitials" : "CE"
	},
	{
		"cityCode" : 2800209,
		"name" : "Aquidabã",
		"latitude" : -10.278,
		"longitude" : -37.0148,
		"isCapitalCity" : false,
		"stateInitials" : "SE"
	},
	{
		"cityCode" : 5001102,
		"name" : "Aquidauana",
		"latitude" : -20.4666,
		"longitude" : -55.7868,
		"isCapitalCity" : false,
		"stateInitials" : "MS"
	},
	{
		"cityCode" : 2301000,
		"name" : "Aquiraz",
		"latitude" : -3.89929,
		"longitude" : -38.3896,
		"isCapitalCity" : false,
		"stateInitials" : "CE"
	},
	{
		"cityCode" : 4201273,
		"name" : "Arabutã",
		"latitude" : -27.1587,
		"longitude" : -52.1423,
		"isCapitalCity" : false,
		"stateInitials" : "SC"
	},
	{
		"cityCode" : 2500809,
		"name" : "Araçagi",
		"latitude" : -6.84374,
		"longitude" : -35.3737,
		"isCapitalCity" : false,
		"stateInitials" : "PB"
	},
	{
		"cityCode" : 3103207,
		"name" : "Araçaí",
		"latitude" : -19.1955,
		"longitude" : -44.2493,
		"isCapitalCity" : false,
		"stateInitials" : "MG"
	},
	{
		"cityCode" : 2800308,
		"name" : "Aracaju",
		"latitude" : -10.9091,
		"longitude" : -37.0677,
		"isCapitalCity" : true,
		"stateInitials" : "SE"
	},
	{
		"cityCode" : 3502754,
		"name" : "Araçariguama",
		"latitude" : -23.4366,
		"longitude" : -47.0608,
		"isCapitalCity" : false,
		"stateInitials" : "SP"
	},
	{
		"cityCode" : 2902054,
		"name" : "Araças",
		"latitude" : -12.22,
		"longitude" : -38.2027,
		"isCapitalCity" : false,
		"stateInitials" : "BA"
	},
	{
		"cityCode" : 2301109,
		"name" : "Aracati",
		"latitude" : -4.55826,
		"longitude" : -37.7679,
		"isCapitalCity" : false,
		"stateInitials" : "CE"
	},
	{
		"cityCode" : 2902005,
		"name" : "Aracatu",
		"latitude" : -14.428,
		"longitude" : -41.4648,
		"isCapitalCity" : false,
		"stateInitials" : "BA"
	},
	{
		"cityCode" : 3502804,
		"name" : "Araçatuba",
		"latitude" : -21.2076,
		"longitude" : -50.4401,
		"isCapitalCity" : false,
		"stateInitials" : "SP"
	},
	{
		"cityCode" : 2902104,
		"name" : "Araci",
		"latitude" : -11.3253,
		"longitude" : -38.9584,
		"isCapitalCity" : false,
		"stateInitials" : "BA"
	},
	{
		"cityCode" : 3103306,
		"name" : "Aracitaba",
		"latitude" : -21.3446,
		"longitude" : -43.3736,
		"isCapitalCity" : false,
		"stateInitials" : "MG"
	},
	{
		"cityCode" : 2601052,
		"name" : "Araçoiaba",
		"latitude" : -7.78391,
		"longitude" : -35.0809,
		"isCapitalCity" : false,
		"stateInitials" : "PE"
	},
	{
		"cityCode" : 2301208,
		"name" : "Aracoiaba",
		"latitude" : -4.36872,
		"longitude" : -38.8125,
		"isCapitalCity" : false,
		"stateInitials" : "CE"
	},
	{
		"cityCode" : 3502903,
		"name" : "Araçoiaba da Serra",
		"latitude" : -23.5029,
		"longitude" : -47.6166,
		"isCapitalCity" : false,
		"stateInitials" : "SP"
	},
	{
		"cityCode" : 3200607,
		"name" : "Aracruz",
		"latitude" : -19.82,
		"longitude" : -40.2764,
		"isCapitalCity" : false,
		"stateInitials" : "ES"
	},
	{
		"cityCode" : 5201603,
		"name" : "Araçu",
		"latitude" : -16.3563,
		"longitude" : -49.6804,
		"isCapitalCity" : false,
		"stateInitials" : "PA"
	},
	{
		"cityCode" : 3103405,
		"name" : "Araçuaí",
		"latitude" : -16.8523,
		"longitude" : -42.0637,
		"isCapitalCity" : false,
		"stateInitials" : "MG"
	},
	{
		"cityCode" : 5201702,
		"name" : "Aragarças",
		"latitude" : -15.8955,
		"longitude" : -52.2372,
		"isCapitalCity" : false,
		"stateInitials" : "PA"
	},
	{
		"cityCode" : 5201801,
		"name" : "Aragoiânia",
		"latitude" : -16.9087,
		"longitude" : -49.4476,
		"isCapitalCity" : false,
		"stateInitials" : "PA"
	},
	{
		"cityCode" : 1701309,
		"name" : "Aragominas",
		"latitude" : -7.16005,
		"longitude" : -48.5291,
		"isCapitalCity" : false,
		"stateInitials" : "TO"
	},
	{
		"cityCode" : 1701903,
		"name" : "Araguacema",
		"latitude" : -8.80755,
		"longitude" : -49.5569,
		"isCapitalCity" : false,
		"stateInitials" : "TO"
	},
	{
		"cityCode" : 1702000,
		"name" : "Araguaçu",
		"latitude" : -12.9289,
		"longitude" : -49.8231,
		"isCapitalCity" : false,
		"stateInitials" : "TO"
	},
	{
		"cityCode" : 5101001,
		"name" : "Araguaiana",
		"latitude" : -15.7291,
		"longitude" : -51.8341,
		"isCapitalCity" : false,
		"stateInitials" : "MT"
	},
	{
		"cityCode" : 1702109,
		"name" : "Araguaína",
		"latitude" : -7.19238,
		"longitude" : -48.2044,
		"isCapitalCity" : false,
		"stateInitials" : "TO"
	},
	{
		"cityCode" : 5101209,
		"name" : "Araguainha",
		"latitude" : -16.857,
		"longitude" : -53.0318,
		"isCapitalCity" : false,
		"stateInitials" : "MT"
	},
	{
		"cityCode" : 1702158,
		"name" : "Araguanã",
		"latitude" : -6.58225,
		"longitude" : -48.6395,
		"isCapitalCity" : false,
		"stateInitials" : "TO"
	},
	{
		"cityCode" : 2100873,
		"name" : "Araguanã",
		"latitude" : -2.94644,
		"longitude" : -45.6589,
		"isCapitalCity" : false,
		"stateInitials" : "MA"
	},
	{
		"cityCode" : 5202155,
		"name" : "Araguapaz",
		"latitude" : -15.0909,
		"longitude" : -50.6315,
		"isCapitalCity" : false,
		"stateInitials" : "PA"
	},
	{
		"cityCode" : 3103504,
		"name" : "Araguari",
		"latitude" : -18.6456,
		"longitude" : -48.1934,
		"isCapitalCity" : false,
		"stateInitials" : "MG"
	},
	{
		"cityCode" : 1702208,
		"name" : "Araguatins",
		"latitude" : -5.64659,
		"longitude" : -48.1232,
		"isCapitalCity" : false,
		"stateInitials" : "TO"
	},
	{
		"cityCode" : 2100907,
		"name" : "Araioses",
		"latitude" : -2.89091,
		"longitude" : -41.905,
		"isCapitalCity" : false,
		"stateInitials" : "MA"
	},
	{
		"cityCode" : 5001243,
		"name" : "Aral Moreira",
		"latitude" : -22.9385,
		"longitude" : -55.6334,
		"isCapitalCity" : false,
		"stateInitials" : "MS"
	},
	{
		"cityCode" : 2902203,
		"name" : "Aramari",
		"latitude" : -12.0884,
		"longitude" : -38.4969,
		"isCapitalCity" : false,
		"stateInitials" : "BA"
	},
	{
		"cityCode" : 4300851,
		"name" : "Arambaré",
		"latitude" : -30.9092,
		"longitude" : -51.5046,
		"isCapitalCity" : false,
		"stateInitials" : "RS"
	},
	{
		"cityCode" : 2100956,
		"name" : "Arame",
		"latitude" : -4.88347,
		"longitude" : -46.0032,
		"isCapitalCity" : false,
		"stateInitials" : "MA"
	},
	{
		"cityCode" : 3503000,
		"name" : "Aramina",
		"latitude" : -20.0882,
		"longitude" : -47.7873,
		"isCapitalCity" : false,
		"stateInitials" : "SP"
	},
	{
		"cityCode" : 3503109,
		"name" : "Arandu",
		"latitude" : -23.1386,
		"longitude" : -49.0487,
		"isCapitalCity" : false,
		"stateInitials" : "SP"
	},
	{
		"cityCode" : 3103603,
		"name" : "Arantina",
		"latitude" : -21.9102,
		"longitude" : -44.2555,
		"isCapitalCity" : false,
		"stateInitials" : "MG"
	},
	{
		"cityCode" : 3503158,
		"name" : "Arapeí",
		"latitude" : -22.6717,
		"longitude" : -44.4441,
		"isCapitalCity" : false,
		"stateInitials" : "SP"
	},
	{
		"cityCode" : 2700300,
		"name" : "Arapiraca",
		"latitude" : -9.75487,
		"longitude" : -36.6615,
		"isCapitalCity" : false,
		"stateInitials" : "AL"
	},
	{
		"cityCode" : 1702307,
		"name" : "Arapoema",
		"latitude" : -7.65463,
		"longitude" : -49.0637,
		"isCapitalCity" : false,
		"stateInitials" : "TO"
	},
	{
		"cityCode" : 3103702,
		"name" : "Araponga",
		"latitude" : -20.6686,
		"longitude" : -42.5178,
		"isCapitalCity" : false,
		"stateInitials" : "MG"
	},
	{
		"cityCode" : 4101507,
		"name" : "Arapongas",
		"latitude" : -23.4153,
		"longitude" : -51.4259,
		"isCapitalCity" : false,
		"stateInitials" : "PR"
	},
	{
		"cityCode" : 3103751,
		"name" : "Araporã",
		"latitude" : -18.4357,
		"longitude" : -49.1847,
		"isCapitalCity" : false,
		"stateInitials" : "MG"
	},
	{
		"cityCode" : 4101606,
		"name" : "Arapoti",
		"latitude" : -24.1548,
		"longitude" : -49.8285,
		"isCapitalCity" : false,
		"stateInitials" : "PR"
	},
	{
		"cityCode" : 4101655,
		"name" : "Arapuã",
		"latitude" : -24.3132,
		"longitude" : -51.7856,
		"isCapitalCity" : false,
		"stateInitials" : "PR"
	},
	{
		"cityCode" : 3103801,
		"name" : "Arapuá",
		"latitude" : -19.0268,
		"longitude" : -46.1484,
		"isCapitalCity" : false,
		"stateInitials" : "MG"
	},
	{
		"cityCode" : 5101258,
		"name" : "Araputanga",
		"latitude" : -15.4641,
		"longitude" : -58.3425,
		"isCapitalCity" : false,
		"stateInitials" : "MT"
	},
	{
		"cityCode" : 4201307,
		"name" : "Araquari",
		"latitude" : -26.3754,
		"longitude" : -48.7188,
		"isCapitalCity" : false,
		"stateInitials" : "SC"
	},
	{
		"cityCode" : 2500908,
		"name" : "Arara",
		"latitude" : -6.82813,
		"longitude" : -35.7552,
		"isCapitalCity" : false,
		"stateInitials" : "PB"
	},
	{
		"cityCode" : 4201406,
		"name" : "Araranguá",
		"latitude" : -28.9356,
		"longitude" : -49.4918,
		"isCapitalCity" : false,
		"stateInitials" : "SC"
	},
	{
		"cityCode" : 3503208,
		"name" : "Araraquara",
		"latitude" : -21.7845,
		"longitude" : -48.178,
		"isCapitalCity" : false,
		"stateInitials" : "SP",
        "nfseKeyword": "ginfes"
	},
	{
		"cityCode" : 3503307,
		"name" : "Araras",
		"latitude" : -22.3572,
		"longitude" : -47.3842,
		"isCapitalCity" : false,
		"stateInitials" : "SP"
	},
	{
		"cityCode" : 2301257,
		"name" : "Ararendá",
		"latitude" : -4.74567,
		"longitude" : -40.831,
		"isCapitalCity" : false,
		"stateInitials" : "CE"
	},
	{
		"cityCode" : 2101004,
		"name" : "Arari",
		"latitude" : -3.45214,
		"longitude" : -44.7665,
		"isCapitalCity" : false,
		"stateInitials" : "MA"
	},
	{
		"cityCode" : 4300877,
		"name" : "Araricá",
		"latitude" : -29.6168,
		"longitude" : -50.9291,
		"isCapitalCity" : false,
		"stateInitials" : "RS"
	},
	{
		"cityCode" : 2301307,
		"name" : "Araripe",
		"latitude" : -7.21319,
		"longitude" : -40.1359,
		"isCapitalCity" : false,
		"stateInitials" : "CE"
	},
	{
		"cityCode" : 2601102,
		"name" : "Araripina",
		"latitude" : -7.57073,
		"longitude" : -40.494,
		"isCapitalCity" : false,
		"stateInitials" : "PE"
	},
	{
		"cityCode" : 3300209,
		"name" : "Araruama",
		"latitude" : -22.8697,
		"longitude" : -42.3326,
		"isCapitalCity" : false,
		"stateInitials" : "RJ"
	},
	{
		"cityCode" : 4101705,
		"name" : "Araruna",
		"latitude" : -23.9315,
		"longitude" : -52.5021,
		"isCapitalCity" : false,
		"stateInitials" : "PR"
	},
	{
		"cityCode" : 2501005,
		"name" : "Araruna",
		"latitude" : -6.54848,
		"longitude" : -35.7498,
		"isCapitalCity" : false,
		"stateInitials" : "PB"
	},
	{
		"cityCode" : 2902252,
		"name" : "Arataca",
		"latitude" : -15.2651,
		"longitude" : -39.419,
		"isCapitalCity" : false,
		"stateInitials" : "BA"
	},
	{
		"cityCode" : 4300901,
		"name" : "Aratiba",
		"latitude" : -27.3978,
		"longitude" : -52.2975,
		"isCapitalCity" : false,
		"stateInitials" : "RS"
	},
	{
		"cityCode" : 2301406,
		"name" : "Aratuba",
		"latitude" : -4.41229,
		"longitude" : -39.0471,
		"isCapitalCity" : false,
		"stateInitials" : "CE"
	},
	{
		"cityCode" : 2902302,
		"name" : "Aratuípe",
		"latitude" : -13.0716,
		"longitude" : -39.0038,
		"isCapitalCity" : false,
		"stateInitials" : "BA"
	},
	{
		"cityCode" : 2800407,
		"name" : "Arauá",
		"latitude" : -11.2614,
		"longitude" : -37.6201,
		"isCapitalCity" : false,
		"stateInitials" : "SE"
	},
	{
		"cityCode" : 4101804,
		"name" : "Araucária",
		"latitude" : -25.5859,
		"longitude" : -49.4047,
		"isCapitalCity" : false,
		"stateInitials" : "PR"
	},
	{
		"cityCode" : 3103900,
		"name" : "Araújos",
		"latitude" : -19.9405,
		"longitude" : -45.1671,
		"isCapitalCity" : false,
		"stateInitials" : "MG"
	},
	{
		"cityCode" : 3104007,
		"name" : "Araxá",
		"latitude" : -19.5902,
		"longitude" : -46.9438,
		"isCapitalCity" : false,
		"stateInitials" : "MG"
	},
	{
		"cityCode" : 3104106,
		"name" : "Arceburgo",
		"latitude" : -21.359,
		"longitude" : -46.9401,
		"isCapitalCity" : false,
		"stateInitials" : "MG"
	},
	{
		"cityCode" : 3503356,
		"name" : "Arco-Íris",
		"latitude" : -21.7728,
		"longitude" : -50.466,
		"isCapitalCity" : false,
		"stateInitials" : "SP"
	},
	{
		"cityCode" : 3104205,
		"name" : "Arcos",
		"latitude" : -20.2863,
		"longitude" : -45.5373,
		"isCapitalCity" : false,
		"stateInitials" : "MG"
	},
	{
		"cityCode" : 2601201,
		"name" : "Arcoverde",
		"latitude" : -8.41519,
		"longitude" : -37.0577,
		"isCapitalCity" : false,
		"stateInitials" : "PE"
	},
	{
		"cityCode" : 3104304,
		"name" : "Areado",
		"latitude" : -21.3572,
		"longitude" : -46.1421,
		"isCapitalCity" : false,
		"stateInitials" : "MG"
	},
	{
		"cityCode" : 3300225,
		"name" : "Areal",
		"latitude" : -22.2283,
		"longitude" : -43.1118,
		"isCapitalCity" : false,
		"stateInitials" : "RJ"
	},
	{
		"cityCode" : 3503406,
		"name" : "Arealva",
		"latitude" : -22.031,
		"longitude" : -48.9135,
		"isCapitalCity" : false,
		"stateInitials" : "SP"
	},
	{
		"cityCode" : 2501104,
		"name" : "Areia",
		"latitude" : -6.96396,
		"longitude" : -35.6977,
		"isCapitalCity" : false,
		"stateInitials" : "PB"
	},
	{
		"cityCode" : 2401107,
		"name" : "Areia Branca",
		"latitude" : -4.95254,
		"longitude" : -37.1252,
		"isCapitalCity" : false,
		"stateInitials" : "RN"
	},
	{
		"cityCode" : 2800506,
		"name" : "Areia Branca",
		"latitude" : -10.758,
		"longitude" : -37.3251,
		"isCapitalCity" : false,
		"stateInitials" : "SE"
	},
	{
		"cityCode" : 2501153,
		"name" : "Areia de Baraúnas",
		"latitude" : -7.11702,
		"longitude" : -36.9404,
		"isCapitalCity" : false,
		"stateInitials" : "PB"
	},
	{
		"cityCode" : 2501203,
		"name" : "Areial",
		"latitude" : -7.04789,
		"longitude" : -35.9313,
		"isCapitalCity" : false,
		"stateInitials" : "PB"
	},
	{
		"cityCode" : 3503505,
		"name" : "Areias",
		"latitude" : -22.5786,
		"longitude" : -44.6992,
		"isCapitalCity" : false,
		"stateInitials" : "SP"
	},
	{
		"cityCode" : 3503604,
		"name" : "Areiópolis",
		"latitude" : -22.6672,
		"longitude" : -48.6681,
		"isCapitalCity" : false,
		"stateInitials" : "SP"
	},
	{
		"cityCode" : 5101308,
		"name" : "Arenápolis",
		"latitude" : -14.4472,
		"longitude" : -56.8437,
		"isCapitalCity" : false,
		"stateInitials" : "MT"
	},
	{
		"cityCode" : 5202353,
		"name" : "Arenópolis",
		"latitude" : -16.3837,
		"longitude" : -51.5563,
		"isCapitalCity" : false,
		"stateInitials" : "PA"
	},
	{
		"cityCode" : 2401206,
		"name" : "Arês",
		"latitude" : -6.18831,
		"longitude" : -35.1608,
		"isCapitalCity" : false,
		"stateInitials" : "RN"
	},
	{
		"cityCode" : 3104403,
		"name" : "Argirita",
		"latitude" : -21.6083,
		"longitude" : -42.8292,
		"isCapitalCity" : false,
		"stateInitials" : "MG"
	},
	{
		"cityCode" : 3104452,
		"name" : "Aricanduva",
		"latitude" : -17.8666,
		"longitude" : -42.5533,
		"isCapitalCity" : false,
		"stateInitials" : "MG"
	},
	{
		"cityCode" : 3104502,
		"name" : "Arinos",
		"latitude" : -15.9187,
		"longitude" : -46.1043,
		"isCapitalCity" : false,
		"stateInitials" : "MG"
	},
	{
		"cityCode" : 5101407,
		"name" : "Aripuanã",
		"latitude" : -10.1723,
		"longitude" : -59.4568,
		"isCapitalCity" : false,
		"stateInitials" : "MT"
	},
	{
		"cityCode" : 1100023,
		"name" : "Ariquemes",
		"latitude" : -9.90571,
		"longitude" : -63.0325,
		"isCapitalCity" : false,
		"stateInitials" : "RO"
	},
	{
		"cityCode" : 3503703,
		"name" : "Ariranha",
		"latitude" : -21.1872,
		"longitude" : -48.7904,
		"isCapitalCity" : false,
		"stateInitials" : "SP"
	},
	{
		"cityCode" : 4101853,
		"name" : "Ariranha do Ivaí",
		"latitude" : -24.3857,
		"longitude" : -51.5839,
		"isCapitalCity" : false,
		"stateInitials" : "PR"
	},
	{
		"cityCode" : 3300233,
		"name" : "Armação dos Búzios",
		"latitude" : -22.7528,
		"longitude" : -41.8846,
		"isCapitalCity" : false,
		"stateInitials" : "RJ"
	},
	{
		"cityCode" : 4201505,
		"name" : "Armazém",
		"latitude" : -28.2448,
		"longitude" : -49.0215,
		"isCapitalCity" : false,
		"stateInitials" : "SC"
	},
	{
		"cityCode" : 2301505,
		"name" : "Arneiroz",
		"latitude" : -6.3165,
		"longitude" : -40.1653,
		"isCapitalCity" : false,
		"stateInitials" : "CE"
	},
	{
		"cityCode" : 2200905,
		"name" : "Aroazes",
		"latitude" : -6.11022,
		"longitude" : -41.7822,
		"isCapitalCity" : false,
		"stateInitials" : "PI"
	},
	{
		"cityCode" : 2501302,
		"name" : "Aroeiras",
		"latitude" : -7.54473,
		"longitude" : -35.7066,
		"isCapitalCity" : false,
		"stateInitials" : "PB"
	},
	{
		"cityCode" : 2200954,
		"name" : "Aroeiras do Itaim",
		"latitude" : -7.24502,
		"longitude" : -41.5325,
		"isCapitalCity" : false,
		"stateInitials" : "PI"
	},
	{
		"cityCode" : 2201002,
		"name" : "Arraial",
		"latitude" : -6.65075,
		"longitude" : -42.5418,
		"isCapitalCity" : false,
		"stateInitials" : "PI"
	},
	{
		"cityCode" : 3300258,
		"name" : "Arraial do Cabo",
		"latitude" : -22.9774,
		"longitude" : -42.0267,
		"isCapitalCity" : false,
		"stateInitials" : "RJ"
	},
	{
		"cityCode" : 1702406,
		"name" : "Arraias",
		"latitude" : -12.9287,
		"longitude" : -46.9359,
		"isCapitalCity" : false,
		"stateInitials" : "TO"
	},
	{
		"cityCode" : 4301008,
		"name" : "Arroio do Meio",
		"latitude" : -29.4014,
		"longitude" : -51.9557,
		"isCapitalCity" : false,
		"stateInitials" : "RS"
	},
	{
		"cityCode" : 4301073,
		"name" : "Arroio do Padre",
		"latitude" : -31.4389,
		"longitude" : -52.4246,
		"isCapitalCity" : false,
		"stateInitials" : "RS"
	},
	{
		"cityCode" : 4301057,
		"name" : "Arroio do Sal",
		"latitude" : -29.5439,
		"longitude" : -49.8895,
		"isCapitalCity" : false,
		"stateInitials" : "RS"
	},
	{
		"cityCode" : 4301206,
		"name" : "Arroio do Tigre",
		"latitude" : -29.3348,
		"longitude" : -53.0966,
		"isCapitalCity" : false,
		"stateInitials" : "RS"
	},
	{
		"cityCode" : 4301107,
		"name" : "Arroio dos Ratos",
		"latitude" : -30.0875,
		"longitude" : -51.7275,
		"isCapitalCity" : false,
		"stateInitials" : "RS"
	},
	{
		"cityCode" : 4301305,
		"name" : "Arroio Grande",
		"latitude" : -32.2327,
		"longitude" : -53.0862,
		"isCapitalCity" : false,
		"stateInitials" : "RS"
	},
	{
		"cityCode" : 4201604,
		"name" : "Arroio Trinta",
		"latitude" : -26.9257,
		"longitude" : -51.3407,
		"isCapitalCity" : false,
		"stateInitials" : "SC"
	},
	{
		"cityCode" : 3503802,
		"name" : "Artur Nogueira",
		"latitude" : -22.5727,
		"longitude" : -47.1727,
		"isCapitalCity" : false,
		"stateInitials" : "SP"
	},
	{
		"cityCode" : 5202502,
		"name" : "Aruanã",
		"latitude" : -14.9166,
		"longitude" : -51.075,
		"isCapitalCity" : false,
		"stateInitials" : "PA"
	},
	{
		"cityCode" : 3503901,
		"name" : "Arujá",
		"latitude" : -23.3965,
		"longitude" : -46.32,
		"isCapitalCity" : false,
		"stateInitials" : "SP"
	},
	{
		"cityCode" : 4201653,
		"name" : "Arvoredo",
		"latitude" : -27.0748,
		"longitude" : -52.4543,
		"isCapitalCity" : false,
		"stateInitials" : "SC"
	},
	{
		"cityCode" : 4301404,
		"name" : "Arvorezinha",
		"latitude" : -28.8737,
		"longitude" : -52.1781,
		"isCapitalCity" : false,
		"stateInitials" : "RS"
	},
	{
		"cityCode" : 4201703,
		"name" : "Ascurra",
		"latitude" : -26.9548,
		"longitude" : -49.3783,
		"isCapitalCity" : false,
		"stateInitials" : "SC"
	},
	{
		"cityCode" : 3503950,
		"name" : "Aspásia",
		"latitude" : -20.16,
		"longitude" : -50.728,
		"isCapitalCity" : false,
		"stateInitials" : "SP"
	},
	{
		"cityCode" : 4101903,
		"name" : "Assaí",
		"latitude" : -23.3697,
		"longitude" : -50.8459,
		"isCapitalCity" : false,
		"stateInitials" : "PR"
	},
	{
		"cityCode" : 2301604,
		"name" : "Assaré",
		"latitude" : -6.8669,
		"longitude" : -39.8689,
		"isCapitalCity" : false,
		"stateInitials" : "CE"
	},
	{
		"cityCode" : 3504008,
		"name" : "Assis",
		"latitude" : -22.66,
		"longitude" : -50.4183,
		"isCapitalCity" : false,
		"stateInitials" : "SP"
	},
	{
		"cityCode" : 1200054,
		"name" : "Assis Brasil",
		"latitude" : -10.9298,
		"longitude" : -69.5738,
		"isCapitalCity" : false,
		"stateInitials" : "AC"
	},
	{
		"cityCode" : 4102000,
		"name" : "Assis Chateaubriand",
		"latitude" : -24.4168,
		"longitude" : -53.5213,
		"isCapitalCity" : false,
		"stateInitials" : "PR"
	},
	{
		"cityCode" : 2501351,
		"name" : "Assunção",
		"latitude" : -7.07231,
		"longitude" : -36.725,
		"isCapitalCity" : false,
		"stateInitials" : "PB"
	},
	{
		"cityCode" : 2201051,
		"name" : "Assunção do Piauí",
		"latitude" : -5.865,
		"longitude" : -41.0389,
		"isCapitalCity" : false,
		"stateInitials" : "PI"
	},
	{
		"cityCode" : 3104601,
		"name" : "Astolfo Dutra",
		"latitude" : -21.3184,
		"longitude" : -42.8572,
		"isCapitalCity" : false,
		"stateInitials" : "MG"
	},
	{
		"cityCode" : 4102109,
		"name" : "Astorga",
		"latitude" : -23.2318,
		"longitude" : -51.6668,
		"isCapitalCity" : false,
		"stateInitials" : "PR"
	},
	{
		"cityCode" : 4102208,
		"name" : "Atalaia",
		"latitude" : -23.1517,
		"longitude" : -52.0551,
		"isCapitalCity" : false,
		"stateInitials" : "PR"
	},
	{
		"cityCode" : 2700409,
		"name" : "Atalaia",
		"latitude" : -9.5119,
		"longitude" : -36.0086,
		"isCapitalCity" : false,
		"stateInitials" : "AL"
	},
	{
		"cityCode" : 1300201,
		"name" : "Atalaia do Norte",
		"latitude" : -4.37055,
		"longitude" : -70.1967,
		"isCapitalCity" : false,
		"stateInitials" : "AM"
	},
	{
		"cityCode" : 4201802,
		"name" : "Atalanta",
		"latitude" : -27.4219,
		"longitude" : -49.7789,
		"isCapitalCity" : false,
		"stateInitials" : "SC"
	},
	{
		"cityCode" : 3104700,
		"name" : "Ataléia",
		"latitude" : -18.0438,
		"longitude" : -41.1149,
		"isCapitalCity" : false,
		"stateInitials" : "MG"
	},
	{
		"cityCode" : 3504107,
		"name" : "Atibaia",
		"latitude" : -23.1171,
		"longitude" : -46.5563,
		"isCapitalCity" : false,
		"stateInitials" : "SP"
	},
	{
		"cityCode" : 3200706,
		"name" : "Atilio Vivacqua",
		"latitude" : -20.913,
		"longitude" : -41.1986,
		"isCapitalCity" : false,
		"stateInitials" : "ES"
	},
	{
		"cityCode" : 1702554,
		"name" : "Augustinópolis",
		"latitude" : -5.46863,
		"longitude" : -47.8863,
		"isCapitalCity" : false,
		"stateInitials" : "TO"
	},
	{
		"cityCode" : 1500909,
		"name" : "Augusto Corrêa",
		"latitude" : -1.05109,
		"longitude" : -46.6147,
		"isCapitalCity" : false,
		"stateInitials" : "PA"
	},
	{
		"cityCode" : 3104809,
		"name" : "Augusto de Lima",
		"latitude" : -18.0997,
		"longitude" : -44.2655,
		"isCapitalCity" : false,
		"stateInitials" : "MG"
	},
	{
		"cityCode" : 4301503,
		"name" : "Augusto Pestana",
		"latitude" : -28.5172,
		"longitude" : -53.9883,
		"isCapitalCity" : false,
		"stateInitials" : "RS"
	},
	{
		"cityCode" : 2401305,
		"name" : "Augusto Severo (Campo Grande)",
		"latitude" : -5.86206,
		"longitude" : -37.3135,
		"isCapitalCity" : false,
		"stateInitials" : "RN"
	},
	{
		"cityCode" : 4301552,
		"name" : "Áurea",
		"latitude" : -27.6936,
		"longitude" : -52.0505,
		"isCapitalCity" : false,
		"stateInitials" : "RS"
	},
	{
		"cityCode" : 2902401,
		"name" : "Aurelino Leal",
		"latitude" : -14.321,
		"longitude" : -39.329,
		"isCapitalCity" : false,
		"stateInitials" : "BA"
	},
	{
		"cityCode" : 3504206,
		"name" : "Auriflama",
		"latitude" : -20.6836,
		"longitude" : -50.5572,
		"isCapitalCity" : false,
		"stateInitials" : "SP"
	},
	{
		"cityCode" : 5202601,
		"name" : "Aurilândia",
		"latitude" : -16.6773,
		"longitude" : -50.4641,
		"isCapitalCity" : false,
		"stateInitials" : "PA"
	},
	{
		"cityCode" : 2301703,
		"name" : "Aurora",
		"latitude" : -6.93349,
		"longitude" : -38.9742,
		"isCapitalCity" : false,
		"stateInitials" : "CE"
	},
	{
		"cityCode" : 4201901,
		"name" : "Aurora",
		"latitude" : -27.3098,
		"longitude" : -49.6295,
		"isCapitalCity" : false,
		"stateInitials" : "SC"
	},
	{
		"cityCode" : 1500958,
		"name" : "Aurora do Pará",
		"latitude" : -2.14898,
		"longitude" : -47.5677,
		"isCapitalCity" : false,
		"stateInitials" : "PA"
	},
	{
		"cityCode" : 1702703,
		"name" : "Aurora do Tocantins",
		"latitude" : -12.7105,
		"longitude" : -46.4076,
		"isCapitalCity" : false,
		"stateInitials" : "TO"
	},
	{
		"cityCode" : 1300300,
		"name" : "Autazes",
		"latitude" : -3.58574,
		"longitude" : -59.1256,
		"isCapitalCity" : false,
		"stateInitials" : "AM"
	},
	{
		"cityCode" : 3504305,
		"name" : "Avaí",
		"latitude" : -22.1514,
		"longitude" : -49.3356,
		"isCapitalCity" : false,
		"stateInitials" : "SP"
	},
	{
		"cityCode" : 3504404,
		"name" : "Avanhandava",
		"latitude" : -21.4584,
		"longitude" : -49.9509,
		"isCapitalCity" : false,
		"stateInitials" : "SP"
	},
	{
		"cityCode" : 3504503,
		"name" : "Avaré",
		"latitude" : -23.1067,
		"longitude" : -48.9251,
		"isCapitalCity" : false,
		"stateInitials" : "SP"
	},
	{
		"cityCode" : 1501006,
		"name" : "Aveiro",
		"latitude" : -3.60841,
		"longitude" : -55.3199,
		"isCapitalCity" : false,
		"stateInitials" : "PA"
	},
	{
		"cityCode" : 2201101,
		"name" : "Avelino Lopes",
		"latitude" : -10.1345,
		"longitude" : -43.9563,
		"isCapitalCity" : false,
		"stateInitials" : "PI"
	},
	{
		"cityCode" : 5202809,
		"name" : "Avelinópolis",
		"latitude" : -16.4672,
		"longitude" : -49.7579,
		"isCapitalCity" : false,
		"stateInitials" : "PA"
	},
	{
		"cityCode" : 2101103,
		"name" : "Axixá",
		"latitude" : -2.83939,
		"longitude" : -44.062,
		"isCapitalCity" : false,
		"stateInitials" : "MA"
	},
	{
		"cityCode" : 1702901,
		"name" : "Axixá do Tocantins",
		"latitude" : -5.61275,
		"longitude" : -47.7701,
		"isCapitalCity" : false,
		"stateInitials" : "TO"
	},
	{
		"cityCode" : 1703008,
		"name" : "Babaçulândia",
		"latitude" : -7.20923,
		"longitude" : -47.7613,
		"isCapitalCity" : false,
		"stateInitials" : "TO"
	},
	{
		"cityCode" : 2101202,
		"name" : "Bacabal",
		"latitude" : -4.22447,
		"longitude" : -44.7832,
		"isCapitalCity" : false,
		"stateInitials" : "MA"
	},
	{
		"cityCode" : 2101251,
		"name" : "Bacabeira",
		"latitude" : -2.96452,
		"longitude" : -44.3164,
		"isCapitalCity" : false,
		"stateInitials" : "MA"
	},
	{
		"cityCode" : 2101301,
		"name" : "Bacuri",
		"latitude" : -1.6965,
		"longitude" : -45.1328,
		"isCapitalCity" : false,
		"stateInitials" : "MA"
	},
	{
		"cityCode" : 2101350,
		"name" : "Bacurituba",
		"latitude" : -2.71,
		"longitude" : -44.7329,
		"isCapitalCity" : false,
		"stateInitials" : "MA"
	},
	{
		"cityCode" : 3504602,
		"name" : "Bady Bassitt",
		"latitude" : -20.9197,
		"longitude" : -49.4385,
		"isCapitalCity" : false,
		"stateInitials" : "SP"
	},
	{
		"cityCode" : 3104908,
		"name" : "Baependi",
		"latitude" : -21.957,
		"longitude" : -44.8874,
		"isCapitalCity" : false,
		"stateInitials" : "MG"
	},
	{
		"cityCode" : 4301602,
		"name" : "Bagé",
		"latitude" : -31.3297,
		"longitude" : -54.0999,
		"isCapitalCity" : false,
		"stateInitials" : "RS"
	},
	{
		"cityCode" : 1501105,
		"name" : "Bagre",
		"latitude" : -1.90057,
		"longitude" : -50.1987,
		"isCapitalCity" : false,
		"stateInitials" : "PA"
	},
	{
		"cityCode" : 2501401,
		"name" : "Baía da Traição",
		"latitude" : -6.69209,
		"longitude" : -34.9381,
		"isCapitalCity" : false,
		"stateInitials" : "PB"
	},
	{
		"cityCode" : 2401404,
		"name" : "Baía Formosa",
		"latitude" : -6.37161,
		"longitude" : -35.0033,
		"isCapitalCity" : false,
		"stateInitials" : "RN"
	},
	{
		"cityCode" : 2902500,
		"name" : "Baianópolis",
		"latitude" : -12.3016,
		"longitude" : -44.5388,
		"isCapitalCity" : false,
		"stateInitials" : "BA"
	},
	{
		"cityCode" : 1501204,
		"name" : "Baião",
		"latitude" : -2.79021,
		"longitude" : -49.6694,
		"isCapitalCity" : false,
		"stateInitials" : "PA"
	},
	{
		"cityCode" : 2902609,
		"name" : "Baixa Grande",
		"latitude" : -11.9519,
		"longitude" : -40.169,
		"isCapitalCity" : false,
		"stateInitials" : "BA"
	},
	{
		"cityCode" : 2201150,
		"name" : "Baixa Grande do Ribeiro",
		"latitude" : -7.84903,
		"longitude" : -45.219,
		"isCapitalCity" : false,
		"stateInitials" : "PI"
	},
	{
		"cityCode" : 2301802,
		"name" : "Baixio",
		"latitude" : -6.71945,
		"longitude" : -38.7134,
		"isCapitalCity" : false,
		"stateInitials" : "CE"
	},
	{
		"cityCode" : 3200805,
		"name" : "Baixo Guandu",
		"latitude" : -19.5213,
		"longitude" : -41.0109,
		"isCapitalCity" : false,
		"stateInitials" : "ES"
	},
	{
		"cityCode" : 3504701,
		"name" : "Balbinos",
		"latitude" : -21.8963,
		"longitude" : -49.3619,
		"isCapitalCity" : false,
		"stateInitials" : "SP"
	},
	{
		"cityCode" : 3105004,
		"name" : "Baldim",
		"latitude" : -19.2832,
		"longitude" : -43.9613,
		"isCapitalCity" : false,
		"stateInitials" : "MG"
	},
	{
		"cityCode" : 5203104,
		"name" : "Baliza",
		"latitude" : -16.1966,
		"longitude" : -52.5393,
		"isCapitalCity" : false,
		"stateInitials" : "PA"
	},
	{
		"cityCode" : 4201950,
		"name" : "Balneário Arroio do Silva",
		"latitude" : -28.9806,
		"longitude" : -49.4237,
		"isCapitalCity" : false,
		"stateInitials" : "SC"
	},
	{
		"cityCode" : 4202057,
		"name" : "Balneário Barra do Sul",
		"latitude" : -26.4597,
		"longitude" : -48.6123,
		"isCapitalCity" : false,
		"stateInitials" : "SC"
	},
	{
		"cityCode" : 4202008,
		"name" : "Balneário Camboriú",
		"latitude" : -26.9926,
		"longitude" : -48.6352,
		"isCapitalCity" : false,
		"stateInitials" : "SC"
	},
	{
		"cityCode" : 4202073,
		"name" : "Balneário Gaivota",
		"latitude" : -29.1527,
		"longitude" : -49.5841,
		"isCapitalCity" : false,
		"stateInitials" : "SC"
	},
	{
		"cityCode" : 4212809,
		"name" : "Balneário Piçarras",
		"latitude" : -26.7639,
		"longitude" : -48.6717,
		"isCapitalCity" : false,
		"stateInitials" : "SC"
	},
	{
		"cityCode" : 4301636,
		"name" : "Balneário Pinhal",
		"latitude" : -30.2419,
		"longitude" : -50.2337,
		"isCapitalCity" : false,
		"stateInitials" : "RS"
	},
	{
		"cityCode" : 4220000,
		"name" : "Balneário Rincão",
		"latitude" : -28.8314,
		"longitude" : -49.2352,
		"isCapitalCity" : false,
		"stateInitials" : "SC"
	},
	{
		"cityCode" : 4102307,
		"name" : "Balsa Nova",
		"latitude" : -25.5804,
		"longitude" : -49.6291,
		"isCapitalCity" : false,
		"stateInitials" : "PR"
	},
	{
		"cityCode" : 3504800,
		"name" : "Bálsamo",
		"latitude" : -20.7348,
		"longitude" : -49.5865,
		"isCapitalCity" : false,
		"stateInitials" : "SP"
	},
	{
		"cityCode" : 2101400,
		"name" : "Balsas",
		"latitude" : -7.53214,
		"longitude" : -46.0372,
		"isCapitalCity" : false,
		"stateInitials" : "MA"
	},
	{
		"cityCode" : 3105103,
		"name" : "Bambuí",
		"latitude" : -20.0166,
		"longitude" : -45.9754,
		"isCapitalCity" : false,
		"stateInitials" : "MG"
	},
	{
		"cityCode" : 2301851,
		"name" : "Banabuiú",
		"latitude" : -5.30454,
		"longitude" : -38.9132,
		"isCapitalCity" : false,
		"stateInitials" : "CE"
	},
	{
		"cityCode" : 3504909,
		"name" : "Bananal",
		"latitude" : -22.6819,
		"longitude" : -44.3281,
		"isCapitalCity" : false,
		"stateInitials" : "SP"
	},
	{
		"cityCode" : 2501500,
		"name" : "Bananeiras",
		"latitude" : -6.74775,
		"longitude" : -35.6246,
		"isCapitalCity" : false,
		"stateInitials" : "PB"
	},
	{
		"cityCode" : 3105202,
		"name" : "Bandeira",
		"latitude" : -15.8783,
		"longitude" : -40.5622,
		"isCapitalCity" : false,
		"stateInitials" : "MG"
	},
	{
		"cityCode" : 3105301,
		"name" : "Bandeira do Sul",
		"latitude" : -21.7308,
		"longitude" : -46.3833,
		"isCapitalCity" : false,
		"stateInitials" : "MG"
	},
	{
		"cityCode" : 4202081,
		"name" : "Bandeirante",
		"latitude" : -26.7705,
		"longitude" : -53.6413,
		"isCapitalCity" : false,
		"stateInitials" : "SC"
	},
	{
		"cityCode" : 5001508,
		"name" : "Bandeirantes",
		"latitude" : -19.9275,
		"longitude" : -54.3585,
		"isCapitalCity" : false,
		"stateInitials" : "MS"
	},
	{
		"cityCode" : 4102406,
		"name" : "Bandeirantes",
		"latitude" : -23.1078,
		"longitude" : -50.3704,
		"isCapitalCity" : false,
		"stateInitials" : "PR"
	},
	{
		"cityCode" : 1703057,
		"name" : "Bandeirantes do Tocantins",
		"latitude" : -7.75612,
		"longitude" : -48.5836,
		"isCapitalCity" : false,
		"stateInitials" : "TO"
	},
	{
		"cityCode" : 1501253,
		"name" : "Bannach",
		"latitude" : -7.34779,
		"longitude" : -50.3959,
		"isCapitalCity" : false,
		"stateInitials" : "PA"
	},
	{
		"cityCode" : 2902658,
		"name" : "Banzaê",
		"latitude" : -10.5788,
		"longitude" : -38.6212,
		"isCapitalCity" : false,
		"stateInitials" : "BA"
	},
	{
		"cityCode" : 4301651,
		"name" : "Barão",
		"latitude" : -29.3725,
		"longitude" : -51.4949,
		"isCapitalCity" : false,
		"stateInitials" : "RS"
	},
	{
		"cityCode" : 3505005,
		"name" : "Barão de Antonina",
		"latitude" : -23.6284,
		"longitude" : -49.5634,
		"isCapitalCity" : false,
		"stateInitials" : "SP"
	},
	{
		"cityCode" : 3105400,
		"name" : "Barão de Cocais",
		"latitude" : -19.9389,
		"longitude" : -43.4755,
		"isCapitalCity" : false,
		"stateInitials" : "MG"
	},
	{
		"cityCode" : 4301701,
		"name" : "Barão de Cotegipe",
		"latitude" : -27.6208,
		"longitude" : -52.3798,
		"isCapitalCity" : false,
		"stateInitials" : "RS"
	},
	{
		"cityCode" : 2101509,
		"name" : "Barão de Grajaú",
		"latitude" : -6.74463,
		"longitude" : -43.0261,
		"isCapitalCity" : false,
		"stateInitials" : "MA"
	},
	{
		"cityCode" : 5101605,
		"name" : "Barão de Melgaço",
		"latitude" : -16.2067,
		"longitude" : -55.9623,
		"isCapitalCity" : false,
		"stateInitials" : "MT"
	},
	{
		"cityCode" : 3105509,
		"name" : "Barão de Monte Alto",
		"latitude" : -21.2444,
		"longitude" : -42.2372,
		"isCapitalCity" : false,
		"stateInitials" : "MG"
	},
	{
		"cityCode" : 4301750,
		"name" : "Barão do Triunfo",
		"latitude" : -30.3891,
		"longitude" : -51.7384,
		"isCapitalCity" : false,
		"stateInitials" : "RS"
	},
	{
		"cityCode" : 2401453,
		"name" : "Baraúna",
		"latitude" : -5.06977,
		"longitude" : -37.6129,
		"isCapitalCity" : false,
		"stateInitials" : "RN"
	},
	{
		"cityCode" : 2501534,
		"name" : "Baraúna",
		"latitude" : -6.63484,
		"longitude" : -36.2601,
		"isCapitalCity" : false,
		"stateInitials" : "PB"
	},
	{
		"cityCode" : 3105608,
		"name" : "Barbacena",
		"latitude" : -21.2214,
		"longitude" : -43.7703,
		"isCapitalCity" : false,
		"stateInitials" : "MG"
	},
	{
		"cityCode" : 2301901,
		"name" : "Barbalha",
		"latitude" : -7.2982,
		"longitude" : -39.3021,
		"isCapitalCity" : false,
		"stateInitials" : "CE"
	},
	{
		"cityCode" : 3505104,
		"name" : "Barbosa",
		"latitude" : -21.2657,
		"longitude" : -49.9518,
		"isCapitalCity" : false,
		"stateInitials" : "SP"
	},
	{
		"cityCode" : 4102505,
		"name" : "Barbosa Ferraz",
		"latitude" : -24.0334,
		"longitude" : -52.004,
		"isCapitalCity" : false,
		"stateInitials" : "PR"
	},
	{
		"cityCode" : 1501303,
		"name" : "Barcarena",
		"latitude" : -1.51187,
		"longitude" : -48.6195,
		"isCapitalCity" : false,
		"stateInitials" : "PA"
	},
	{
		"cityCode" : 2401503,
		"name" : "Barcelona",
		"latitude" : -5.94284,
		"longitude" : -35.9247,
		"isCapitalCity" : false,
		"stateInitials" : "RN"
	},
	{
		"cityCode" : 1300409,
		"name" : "Barcelos",
		"latitude" : -0.983373,
		"longitude" : -62.9311,
		"isCapitalCity" : false,
		"stateInitials" : "AM"
	},
	{
		"cityCode" : 3505203,
		"name" : "Bariri",
		"latitude" : -22.073,
		"longitude" : -48.7438,
		"isCapitalCity" : false,
		"stateInitials" : "SP"
	},
	{
		"cityCode" : 2902708,
		"name" : "Barra",
		"latitude" : -11.0859,
		"longitude" : -43.1459,
		"isCapitalCity" : false,
		"stateInitials" : "BA"
	},
	{
		"cityCode" : 4202099,
		"name" : "Barra Bonita",
		"latitude" : -26.654,
		"longitude" : -53.44,
		"isCapitalCity" : false,
		"stateInitials" : "SC"
	},
	{
		"cityCode" : 3505302,
		"name" : "Barra Bonita",
		"latitude" : -22.4909,
		"longitude" : -48.5583,
		"isCapitalCity" : false,
		"stateInitials" : "SP"
	},
	{
		"cityCode" : 2201176,
		"name" : "Barra D'Alcântara",
		"latitude" : -6.51645,
		"longitude" : -42.1146,
		"isCapitalCity" : false,
		"stateInitials" : "PI"
	},
	{
		"cityCode" : 2902807,
		"name" : "Barra da Estiva",
		"latitude" : -13.6237,
		"longitude" : -41.3347,
		"isCapitalCity" : false,
		"stateInitials" : "BA"
	},
	{
		"cityCode" : 2601300,
		"name" : "Barra de Guabiraba",
		"latitude" : -8.42075,
		"longitude" : -35.6585,
		"isCapitalCity" : false,
		"stateInitials" : "PE"
	},
	{
		"cityCode" : 2501609,
		"name" : "Barra de Santa Rosa",
		"latitude" : -6.71816,
		"longitude" : -36.0671,
		"isCapitalCity" : false,
		"stateInitials" : "PB"
	},
	{
		"cityCode" : 2501575,
		"name" : "Barra de Santana",
		"latitude" : -7.51809,
		"longitude" : -35.9913,
		"isCapitalCity" : false,
		"stateInitials" : "PB"
	},
	{
		"cityCode" : 2700508,
		"name" : "Barra de Santo Antônio",
		"latitude" : -9.4023,
		"longitude" : -35.5101,
		"isCapitalCity" : false,
		"stateInitials" : "AL"
	},
	{
		"cityCode" : 3200904,
		"name" : "Barra de São Francisco",
		"latitude" : -18.7548,
		"longitude" : -40.8965,
		"isCapitalCity" : false,
		"stateInitials" : "ES"
	},
	{
		"cityCode" : 2501708,
		"name" : "Barra de São Miguel",
		"latitude" : -7.74603,
		"longitude" : -36.3209,
		"isCapitalCity" : false,
		"stateInitials" : "PB"
	},
	{
		"cityCode" : 2700607,
		"name" : "Barra de São Miguel",
		"latitude" : -9.83842,
		"longitude" : -35.9057,
		"isCapitalCity" : false,
		"stateInitials" : "AL"
	},
	{
		"cityCode" : 5101704,
		"name" : "Barra do Bugres",
		"latitude" : -15.0702,
		"longitude" : -57.1878,
		"isCapitalCity" : false,
		"stateInitials" : "MT"
	},
	{
		"cityCode" : 3505351,
		"name" : "Barra do Chapéu",
		"latitude" : -24.4722,
		"longitude" : -49.0238,
		"isCapitalCity" : false,
		"stateInitials" : "SP"
	},
	{
		"cityCode" : 2902906,
		"name" : "Barra do Choça",
		"latitude" : -14.8654,
		"longitude" : -40.5791,
		"isCapitalCity" : false,
		"stateInitials" : "BA"
	},
	{
		"cityCode" : 2101608,
		"name" : "Barra do Corda",
		"latitude" : -5.49682,
		"longitude" : -45.2485,
		"isCapitalCity" : false,
		"stateInitials" : "MA"
	},
	{
		"cityCode" : 5101803,
		"name" : "Barra do Garças",
		"latitude" : -15.8804,
		"longitude" : -52.264,
		"isCapitalCity" : false,
		"stateInitials" : "MT"
	},
	{
		"cityCode" : 4301859,
		"name" : "Barra do Guarita",
		"latitude" : -27.1927,
		"longitude" : -53.7109,
		"isCapitalCity" : false,
		"stateInitials" : "RS"
	},
	{
		"cityCode" : 4102703,
		"name" : "Barra do Jacaré",
		"latitude" : -23.116,
		"longitude" : -50.1842,
		"isCapitalCity" : false,
		"stateInitials" : "PR"
	},
	{
		"cityCode" : 2903003,
		"name" : "Barra do Mendes",
		"latitude" : -11.81,
		"longitude" : -42.059,
		"isCapitalCity" : false,
		"stateInitials" : "BA"
	},
	{
		"cityCode" : 1703073,
		"name" : "Barra do Ouro",
		"latitude" : -7.69593,
		"longitude" : -47.6776,
		"isCapitalCity" : false,
		"stateInitials" : "TO"
	},
	{
		"cityCode" : 3300308,
		"name" : "Barra do Piraí",
		"latitude" : -22.4715,
		"longitude" : -43.8269,
		"isCapitalCity" : false,
		"stateInitials" : "RJ"
	},
	{
		"cityCode" : 4301875,
		"name" : "Barra do Quaraí",
		"latitude" : -30.2029,
		"longitude" : -57.5497,
		"isCapitalCity" : false,
		"stateInitials" : "RS"
	},
	{
		"cityCode" : 4301909,
		"name" : "Barra do Ribeiro",
		"latitude" : -30.2939,
		"longitude" : -51.3014,
		"isCapitalCity" : false,
		"stateInitials" : "RS"
	},
	{
		"cityCode" : 4301925,
		"name" : "Barra do Rio Azul",
		"latitude" : -27.4069,
		"longitude" : -52.4084,
		"isCapitalCity" : false,
		"stateInitials" : "RS"
	},
	{
		"cityCode" : 2903102,
		"name" : "Barra do Rocha",
		"latitude" : -14.2,
		"longitude" : -39.5991,
		"isCapitalCity" : false,
		"stateInitials" : "BA"
	},
	{
		"cityCode" : 3505401,
		"name" : "Barra do Turvo",
		"latitude" : -24.759,
		"longitude" : -48.5013,
		"isCapitalCity" : false,
		"stateInitials" : "SP"
	},
	{
		"cityCode" : 2800605,
		"name" : "Barra dos Coqueiros",
		"latitude" : -10.8996,
		"longitude" : -37.0323,
		"isCapitalCity" : false,
		"stateInitials" : "SE"
	},
	{
		"cityCode" : 4301958,
		"name" : "Barra Funda",
		"latitude" : -27.9205,
		"longitude" : -53.0391,
		"isCapitalCity" : false,
		"stateInitials" : "RS"
	},
	{
		"cityCode" : 3105707,
		"name" : "Barra Longa",
		"latitude" : -20.2869,
		"longitude" : -43.0402,
		"isCapitalCity" : false,
		"stateInitials" : "MG"
	},
	{
		"cityCode" : 3300407,
		"name" : "Barra Mansa",
		"latitude" : -22.5481,
		"longitude" : -44.1752,
		"isCapitalCity" : false,
		"stateInitials" : "RJ"
	},
	{
		"cityCode" : 4202107,
		"name" : "Barra Velha",
		"latitude" : -26.637,
		"longitude" : -48.6933,
		"isCapitalCity" : false,
		"stateInitials" : "SC"
	},
	{
		"cityCode" : 4301800,
		"name" : "Barracão",
		"latitude" : -27.6739,
		"longitude" : -51.4585,
		"isCapitalCity" : false,
		"stateInitials" : "RS"
	},
	{
		"cityCode" : 4102604,
		"name" : "Barracão",
		"latitude" : -26.2502,
		"longitude" : -53.6324,
		"isCapitalCity" : false,
		"stateInitials" : "PR"
	},
	{
		"cityCode" : 2201200,
		"name" : "Barras",
		"latitude" : -4.24468,
		"longitude" : -42.2922,
		"isCapitalCity" : false,
		"stateInitials" : "PI"
	},
	{
		"cityCode" : 2301950,
		"name" : "Barreira",
		"latitude" : -4.28921,
		"longitude" : -38.6429,
		"isCapitalCity" : false,
		"stateInitials" : "CE"
	},
	{
		"cityCode" : 2903201,
		"name" : "Barreiras",
		"latitude" : -12.1439,
		"longitude" : -44.9968,
		"isCapitalCity" : false,
		"stateInitials" : "BA"
	},
	{
		"cityCode" : 2201309,
		"name" : "Barreiras do Piauí",
		"latitude" : -9.9296,
		"longitude" : -45.4702,
		"isCapitalCity" : false,
		"stateInitials" : "PI"
	},
	{
		"cityCode" : 1300508,
		"name" : "Barreirinha",
		"latitude" : -2.79886,
		"longitude" : -57.0679,
		"isCapitalCity" : false,
		"stateInitials" : "AM"
	},
	{
		"cityCode" : 2101707,
		"name" : "Barreirinhas",
		"latitude" : -2.75863,
		"longitude" : -42.8232,
		"isCapitalCity" : false,
		"stateInitials" : "MA"
	},
	{
		"cityCode" : 2601409,
		"name" : "Barreiros",
		"latitude" : -8.81605,
		"longitude" : -35.1832,
		"isCapitalCity" : false,
		"stateInitials" : "PE"
	},
	{
		"cityCode" : 3505500,
		"name" : "Barretos",
		"latitude" : -20.5531,
		"longitude" : -48.5698,
		"isCapitalCity" : false,
		"stateInitials" : "SP"
	},
	{
		"cityCode" : 3505609,
		"name" : "Barrinha",
		"latitude" : -21.1864,
		"longitude" : -48.1636,
		"isCapitalCity" : false,
		"stateInitials" : "SP"
	},
	{
		"cityCode" : 2302008,
		"name" : "Barro",
		"latitude" : -7.17188,
		"longitude" : -38.7741,
		"isCapitalCity" : false,
		"stateInitials" : "CE"
	},
	{
		"cityCode" : 2903235,
		"name" : "Barro Alto",
		"latitude" : -11.7605,
		"longitude" : -41.9054,
		"isCapitalCity" : false,
		"stateInitials" : "BA"
	},
	{
		"cityCode" : 5203203,
		"name" : "Barro Alto",
		"latitude" : -14.9658,
		"longitude" : -48.9086,
		"isCapitalCity" : false,
		"stateInitials" : "PA"
	},
	{
		"cityCode" : 2201408,
		"name" : "Barro Duro",
		"latitude" : -5.81673,
		"longitude" : -42.5147,
		"isCapitalCity" : false,
		"stateInitials" : "PI"
	},
	{
		"cityCode" : 2903300,
		"name" : "Barro Preto",
		"latitude" : -14.7948,
		"longitude" : -39.476,
		"isCapitalCity" : false,
		"stateInitials" : "BA"
	},
	{
		"cityCode" : 2903276,
		"name" : "Barrocas",
		"latitude" : -11.5272,
		"longitude" : -39.0776,
		"isCapitalCity" : false,
		"stateInitials" : "BA"
	},
	{
		"cityCode" : 1703107,
		"name" : "Barrolândia",
		"latitude" : -9.83404,
		"longitude" : -48.7252,
		"isCapitalCity" : false,
		"stateInitials" : "TO"
	},
	{
		"cityCode" : 2302057,
		"name" : "Barroquinha",
		"latitude" : -3.02051,
		"longitude" : -41.1358,
		"isCapitalCity" : false,
		"stateInitials" : "CE"
	},
	{
		"cityCode" : 4302006,
		"name" : "Barros Cassal",
		"latitude" : -29.0947,
		"longitude" : -52.5836,
		"isCapitalCity" : false,
		"stateInitials" : "RS"
	},
	{
		"cityCode" : 3105905,
		"name" : "Barroso",
		"latitude" : -21.1907,
		"longitude" : -43.972,
		"isCapitalCity" : false,
		"stateInitials" : "MG"
	},
	{
		"cityCode" : 3505708,
		"name" : "Barueri",
		"latitude" : -23.5057,
		"longitude" : -46.879,
		"isCapitalCity" : false,
		"stateInitials" : "SP"
	},
	{
		"cityCode" : 3505807,
		"name" : "Bastos",
		"latitude" : -21.921,
		"longitude" : -50.7357,
		"isCapitalCity" : false,
		"stateInitials" : "SP"
	},
	{
		"cityCode" : 5001904,
		"name" : "Bataguassu",
		"latitude" : -21.7159,
		"longitude" : -52.4221,
		"isCapitalCity" : false,
		"stateInitials" : "MS"
	},
	{
		"cityCode" : 2201507,
		"name" : "Batalha",
		"latitude" : -4.0223,
		"longitude" : -42.0787,
		"isCapitalCity" : false,
		"stateInitials" : "PI"
	},
	{
		"cityCode" : 2700706,
		"name" : "Batalha",
		"latitude" : -9.6742,
		"longitude" : -37.133,
		"isCapitalCity" : false,
		"stateInitials" : "AL"
	},
	{
		"cityCode" : 3505906,
		"name" : "Batatais",
		"latitude" : -20.8929,
		"longitude" : -47.5921,
		"isCapitalCity" : false,
		"stateInitials" : "SP"
	},
	{
		"cityCode" : 5002001,
		"name" : "Batayporã",
		"latitude" : -22.2944,
		"longitude" : -53.2705,
		"isCapitalCity" : false,
		"stateInitials" : "MS"
	},
	{
		"cityCode" : 2302107,
		"name" : "Baturité",
		"latitude" : -4.32598,
		"longitude" : -38.8812,
		"isCapitalCity" : false,
		"stateInitials" : "CE"
	},
	{
		"cityCode" : 3506003,
		"name" : "Bauru",
		"latitude" : -22.3246,
		"longitude" : -49.0871,
		"isCapitalCity" : false,
		"stateInitials" : "SP"
	},
	{
		"cityCode" : 2501807,
		"name" : "Bayeux",
		"latitude" : -7.1238,
		"longitude" : -34.9293,
		"isCapitalCity" : false,
		"stateInitials" : "PB"
	},
	{
		"cityCode" : 3506102,
		"name" : "Bebedouro",
		"latitude" : -20.9491,
		"longitude" : -48.4791,
		"isCapitalCity" : false,
		"stateInitials" : "SP"
	},
	{
		"cityCode" : 2302206,
		"name" : "Beberibe",
		"latitude" : -4.17741,
		"longitude" : -38.1271,
		"isCapitalCity" : false,
		"stateInitials" : "CE"
	},
	{
		"cityCode" : 2302305,
		"name" : "Bela Cruz",
		"latitude" : -3.04996,
		"longitude" : -40.1671,
		"isCapitalCity" : false,
		"stateInitials" : "CE"
	},
	{
		"cityCode" : 5002100,
		"name" : "Bela Vista",
		"latitude" : -22.1073,
		"longitude" : -56.5263,
		"isCapitalCity" : false,
		"stateInitials" : "MS"
	},
	{
		"cityCode" : 4102752,
		"name" : "Bela Vista da Caroba",
		"latitude" : -25.8842,
		"longitude" : -53.6725,
		"isCapitalCity" : false,
		"stateInitials" : "PR"
	},
	{
		"cityCode" : 5203302,
		"name" : "Bela Vista de Goiás",
		"latitude" : -16.9693,
		"longitude" : -48.9513,
		"isCapitalCity" : false,
		"stateInitials" : "PA"
	},
	{
		"cityCode" : 3106002,
		"name" : "Bela Vista de Minas",
		"latitude" : -19.8302,
		"longitude" : -43.0922,
		"isCapitalCity" : false,
		"stateInitials" : "MG"
	},
	{
		"cityCode" : 2101772,
		"name" : "Bela Vista do Maranhão",
		"latitude" : -3.72618,
		"longitude" : -45.3075,
		"isCapitalCity" : false,
		"stateInitials" : "MA"
	},
	{
		"cityCode" : 4102802,
		"name" : "Bela Vista do Paraíso",
		"latitude" : -22.9937,
		"longitude" : -51.1927,
		"isCapitalCity" : false,
		"stateInitials" : "PR"
	},
	{
		"cityCode" : 2201556,
		"name" : "Bela Vista do Piauí",
		"latitude" : -7.98809,
		"longitude" : -41.8675,
		"isCapitalCity" : false,
		"stateInitials" : "PI"
	},
	{
		"cityCode" : 4202131,
		"name" : "Bela Vista do Toldo",
		"latitude" : -26.2746,
		"longitude" : -50.4664,
		"isCapitalCity" : false,
		"stateInitials" : "SC"
	},
	{
		"cityCode" : 2101731,
		"name" : "Belágua",
		"latitude" : -3.15485,
		"longitude" : -43.5122,
		"isCapitalCity" : false,
		"stateInitials" : "MA"
	},
	{
		"cityCode" : 1501402,
		"name" : "Belém",
		"latitude" : -1.4554,
		"longitude" : -48.4898,
		"isCapitalCity" : true,
		"stateInitials" : "PA"
	},
	{
		"cityCode" : 2501906,
		"name" : "Belém",
		"latitude" : -6.74261,
		"longitude" : -35.5166,
		"isCapitalCity" : false,
		"stateInitials" : "PB"
	},
	{
		"cityCode" : 2700805,
		"name" : "Belém",
		"latitude" : -9.57047,
		"longitude" : -36.4904,
		"isCapitalCity" : false,
		"stateInitials" : "AL"
	},
	{
		"cityCode" : 2601508,
		"name" : "Belém de Maria",
		"latitude" : -8.62504,
		"longitude" : -35.8335,
		"isCapitalCity" : false,
		"stateInitials" : "PE"
	},
	{
		"cityCode" : 2502003,
		"name" : "Belém do Brejo do Cruz",
		"latitude" : -6.18515,
		"longitude" : -37.5348,
		"isCapitalCity" : false,
		"stateInitials" : "PB"
	},
	{
		"cityCode" : 2201572,
		"name" : "Belém do Piauí",
		"latitude" : -7.36652,
		"longitude" : -40.9688,
		"isCapitalCity" : false,
		"stateInitials" : "PI"
	},
	{
		"cityCode" : 2601607,
		"name" : "Belém do São Francisco",
		"latitude" : -8.75046,
		"longitude" : -38.9623,
		"isCapitalCity" : false,
		"stateInitials" : "PE"
	},
	{
		"cityCode" : 3300456,
		"name" : "Belford Roxo",
		"latitude" : -22.764,
		"longitude" : -43.3992,
		"isCapitalCity" : false,
		"stateInitials" : "RJ"
	},
	{
		"cityCode" : 3106101,
		"name" : "Belmiro Braga",
		"latitude" : -21.944,
		"longitude" : -43.4084,
		"isCapitalCity" : false,
		"stateInitials" : "MG"
	},
	{
		"cityCode" : 4202156,
		"name" : "Belmonte",
		"latitude" : -26.843,
		"longitude" : -53.5758,
		"isCapitalCity" : false,
		"stateInitials" : "SC"
	},
	{
		"cityCode" : 2903409,
		"name" : "Belmonte",
		"latitude" : -15.8608,
		"longitude" : -38.8758,
		"isCapitalCity" : false,
		"stateInitials" : "BA"
	},
	{
		"cityCode" : 2903508,
		"name" : "Belo Campo",
		"latitude" : -15.0334,
		"longitude" : -41.2652,
		"isCapitalCity" : false,
		"stateInitials" : "BA"
	},
	{
		"cityCode" : 3106200,
		"name" : "Belo Horizonte",
		"latitude" : -19.9102,
		"longitude" : -43.9266,
		"isCapitalCity" : true,
		"stateInitials" : "MG"
	},
	{
		"cityCode" : 2601706,
		"name" : "Belo Jardim",
		"latitude" : -8.3313,
		"longitude" : -36.4258,
		"isCapitalCity" : false,
		"stateInitials" : "PE"
	},
	{
		"cityCode" : 2700904,
		"name" : "Belo Monte",
		"latitude" : -9.82272,
		"longitude" : -37.277,
		"isCapitalCity" : false,
		"stateInitials" : "AL"
	},
	{
		"cityCode" : 3106309,
		"name" : "Belo Oriente",
		"latitude" : -19.2199,
		"longitude" : -42.4828,
		"isCapitalCity" : false,
		"stateInitials" : "MG"
	},
	{
		"cityCode" : 3106408,
		"name" : "Belo Vale",
		"latitude" : -20.4077,
		"longitude" : -44.0275,
		"isCapitalCity" : false,
		"stateInitials" : "MG"
	},
	{
		"cityCode" : 1501451,
		"name" : "Belterra",
		"latitude" : -2.63609,
		"longitude" : -54.9374,
		"isCapitalCity" : false,
		"stateInitials" : "PA"
	},
	{
		"cityCode" : 2201606,
		"name" : "Beneditinos",
		"latitude" : -5.45676,
		"longitude" : -42.3638,
		"isCapitalCity" : false,
		"stateInitials" : "PI"
	},
	{
		"cityCode" : 2101806,
		"name" : "Benedito Leite",
		"latitude" : -7.21037,
		"longitude" : -44.5577,
		"isCapitalCity" : false,
		"stateInitials" : "MA"
	},
	{
		"cityCode" : 4202206,
		"name" : "Benedito Novo",
		"latitude" : -26.781,
		"longitude" : -49.3593,
		"isCapitalCity" : false,
		"stateInitials" : "SC"
	},
	{
		"cityCode" : 1501501,
		"name" : "Benevides",
		"latitude" : -1.36183,
		"longitude" : -48.2434,
		"isCapitalCity" : false,
		"stateInitials" : "PA"
	},
	{
		"cityCode" : 1300607,
		"name" : "Benjamin Constant",
		"latitude" : -4.37768,
		"longitude" : -70.0342,
		"isCapitalCity" : false,
		"stateInitials" : "AM"
	},
	{
		"cityCode" : 4302055,
		"name" : "Benjamin Constant do Sul",
		"latitude" : -27.5086,
		"longitude" : -52.5995,
		"isCapitalCity" : false,
		"stateInitials" : "RS"
	},
	{
		"cityCode" : 3506201,
		"name" : "Bento de Abreu",
		"latitude" : -21.2686,
		"longitude" : -50.814,
		"isCapitalCity" : false,
		"stateInitials" : "SP"
	},
	{
		"cityCode" : 2401602,
		"name" : "Bento Fernandes",
		"latitude" : -5.69906,
		"longitude" : -35.813,
		"isCapitalCity" : false,
		"stateInitials" : "RN"
	},
	{
		"cityCode" : 4302105,
		"name" : "Bento Gonçalves",
		"latitude" : -29.1662,
		"longitude" : -51.5165,
		"isCapitalCity" : false,
		"stateInitials" : "RS"
	},
	{
		"cityCode" : 2101905,
		"name" : "Bequimão",
		"latitude" : -2.44162,
		"longitude" : -44.7842,
		"isCapitalCity" : false,
		"stateInitials" : "MA"
	},
	{
		"cityCode" : 3106507,
		"name" : "Berilo",
		"latitude" : -16.9567,
		"longitude" : -42.4606,
		"isCapitalCity" : false,
		"stateInitials" : "MG"
	},
	{
		"cityCode" : 3106655,
		"name" : "Berizal",
		"latitude" : -15.61,
		"longitude" : -41.7432,
		"isCapitalCity" : false,
		"stateInitials" : "MG"
	},
	{
		"cityCode" : 2502052,
		"name" : "Bernardino Batista",
		"latitude" : -6.44572,
		"longitude" : -38.5521,
		"isCapitalCity" : false,
		"stateInitials" : "PB"
	},
	{
		"cityCode" : 3506300,
		"name" : "Bernardino de Campos",
		"latitude" : -23.0164,
		"longitude" : -49.4679,
		"isCapitalCity" : false,
		"stateInitials" : "SP"
	},
	{
		"cityCode" : 2101939,
		"name" : "Bernardo do Mearim",
		"latitude" : -4.62666,
		"longitude" : -44.7608,
		"isCapitalCity" : false,
		"stateInitials" : "MA"
	},
	{
		"cityCode" : 1703206,
		"name" : "Bernardo Sayão",
		"latitude" : -7.87481,
		"longitude" : -48.8893,
		"isCapitalCity" : false,
		"stateInitials" : "TO"
	},
	{
		"cityCode" : 3506359,
		"name" : "Bertioga",
		"latitude" : -23.8486,
		"longitude" : -46.1396,
		"isCapitalCity" : false,
		"stateInitials" : "SP",
        "nfseKeyword": "ginfes"
	},
	{
		"cityCode" : 2201705,
		"name" : "Bertolínia",
		"latitude" : -7.63338,
		"longitude" : -43.9498,
		"isCapitalCity" : false,
		"stateInitials" : "PI"
	},
	{
		"cityCode" : 3106606,
		"name" : "Bertópolis",
		"latitude" : -17.059,
		"longitude" : -40.58,
		"isCapitalCity" : false,
		"stateInitials" : "MG"
	},
	{
		"cityCode" : 1300631,
		"name" : "Beruri",
		"latitude" : -3.89874,
		"longitude" : -61.3616,
		"isCapitalCity" : false,
		"stateInitials" : "AM"
	},
	{
		"cityCode" : 2601805,
		"name" : "Betânia",
		"latitude" : -8.26787,
		"longitude" : -38.0345,
		"isCapitalCity" : false,
		"stateInitials" : "PE"
	},
	{
		"cityCode" : 2201739,
		"name" : "Betânia do Piauí",
		"latitude" : -8.14376,
		"longitude" : -40.7989,
		"isCapitalCity" : false,
		"stateInitials" : "PI"
	},
	{
		"cityCode" : 3106705,
		"name" : "Betim",
		"latitude" : -19.9668,
		"longitude" : -44.2008,
		"isCapitalCity" : false,
		"stateInitials" : "MG",
        "nfseKeyword": "ginfes"
	},
	{
		"cityCode" : 2601904,
		"name" : "Bezerros",
		"latitude" : -8.2328,
		"longitude" : -35.796,
		"isCapitalCity" : false,
		"stateInitials" : "PE"
	},
	{
		"cityCode" : 3106804,
		"name" : "Bias Fortes",
		"latitude" : -21.602,
		"longitude" : -43.7574,
		"isCapitalCity" : false,
		"stateInitials" : "MG"
	},
	{
		"cityCode" : 3106903,
		"name" : "Bicas",
		"latitude" : -21.7232,
		"longitude" : -43.056,
		"isCapitalCity" : false,
		"stateInitials" : "MG"
	},
	{
		"cityCode" : 4202305,
		"name" : "Biguaçu",
		"latitude" : -27.496,
		"longitude" : -48.6598,
		"isCapitalCity" : false,
		"stateInitials" : "SC"
	},
	{
		"cityCode" : 3506409,
		"name" : "Bilac",
		"latitude" : -21.404,
		"longitude" : -50.4746,
		"isCapitalCity" : false,
		"stateInitials" : "SP"
	},